{
"type": "FeatureCollection",
"name": "corporate-mapbox",

"features": [
{ "type": "Feature", "properties": { "NAME": "A F C SUSHI", "ABC START FOR LICENSE YEAR": null, "START DATE DATE": "11\/30\/2004", "ADDRESS": "711 CAMPBELL LN", "CITY": "BOWLING GREEN", "ST": "KY", "ZIP": "42104", "COUNTRY": "UNITED STATES", "DAY PHONE": "270-783-0701", "DESCRIPTION '1": "SUSHI TAKE-OUT RESTAURANT", "CUISINE": "JAPANESE", "OWNERSHIP": "CORPORATE", "TYPE": "BRICK\/MORTAR", "result_num": "0", "score": "100", "address_match": "711 Campbell Ln, Bowling Green, Kentucky, 42104", "Loc_name": "World", "Addr_type": "PointAddress", "User_fld": "", "latlong": "36.96072901457582,-86.46653499755381" }, "geometry": { "type": "Point", "coordinates": [ -86.466534997553808, 36.960729014575818 ] } },
{ "type": "Feature", "properties": { "NAME": "AMERICAN DAIRY QUEEN", "ABC START FOR LICENSE YEAR": null, "START DATE DATE": "07\/01\/2007", "ADDRESS": "2385 NASHVILLE RD", "CITY": "BOWLING GREEN", "ST": "KY", "ZIP": "42101", "COUNTRY": "UNITED STATES", "DAY PHONE": "000-000-0000", "DESCRIPTION '1": "DQ MANAGEMENT SERVICES", "CUISINE": "AMERICAN", "OWNERSHIP": "CORPORATE", "TYPE": "BRICK\/MORTAR", "result_num": "0", "score": "100", "address_match": "2385 Nashville Rd, Bowling Green, Kentucky, 42101", "Loc_name": "World", "Addr_type": "PointAddress", "User_fld": "", "latlong": "36.963009981886955,-86.46829000044069" }, "geometry": { "type": "Point", "coordinates": [ -86.468290000440689, 36.963009981886955 ] } },
{ "type": "Feature", "properties": { "NAME": "TOPPER GRILL & PUB", "ABC START FOR LICENSE YEAR": "2016", "START DATE DATE": "12\/01\/2016", "ADDRESS": "WKU GARRETT CONFERENCE CENTER", "CITY": "BOWLING GREEN", "ST": "KY", "ZIP": "42101", "COUNTRY": "UNITED STATES", "DAY PHONE": "270-745-5056", "DESCRIPTION '1": "ARAMARK EDUCATIONAL SERV LLC", "CUISINE": "AMERICAN", "OWNERSHIP": "CORPORATE", "TYPE": "BRICK\/MORTAR", "result_num": "0", "score": "80.26", "address_match": "Carroll Knicely Conference Center", "Loc_name": "World", "Addr_type": "POI", "User_fld": "", "latlong": "36.96439000000004,-86.46640999999994" }, "geometry": { "type": "Point", "coordinates": [ -86.46641, 36.96439 ] } },
{ "type": "Feature", "properties": { "NAME": "CHILI'S GRILL & BAR", "ABC START FOR LICENSE YEAR": "2016", "START DATE DATE": "05\/16\/1997", "ADDRESS": "268 ALUMNI AVE", "CITY": "BOWLING GREEN", "ST": "KY", "ZIP": "42101", "COUNTRY": "UNITED STATES", "DAY PHONE": "270-745-5056", "DESCRIPTION '1": "ARAMARK EDUCATIONAL SERVICES", "CUISINE": "AMERICAN", "OWNERSHIP": "CORPORATE", "TYPE": "BRICK\/MORTAR", "result_num": "0", "score": "100", "address_match": "268 Alumni Ave, Bowling Green, Kentucky, 42101", "Loc_name": "World", "Addr_type": "PointAddress", "User_fld": "", "latlong": "36.98985998378595,-86.45142401869009" }, "geometry": { "type": "Point", "coordinates": [ -86.451424018690091, 36.989859983785948 ] } },
{ "type": "Feature", "properties": { "NAME": "ARBY'S RESTAURANT GROUP", "ABC START FOR LICENSE YEAR": null, "START DATE DATE": "01\/01\/1998", "ADDRESS": "904 US 31W BYPASS", "CITY": "BOWLING GREEN", "ST": "KY", "ZIP": "42101", "COUNTRY": "UNITED STATES", "DAY PHONE": "270-000-0000", "DESCRIPTION '1": "RESTAURANT", "CUISINE": "AMERICAN", "OWNERSHIP": "CORPORATE", "TYPE": "BRICK\/MORTAR", "result_num": "0", "score": "100", "address_match": "904 Us 31w Byp, Bowling Green, Kentucky, 42101", "Loc_name": "World", "Addr_type": "PointAddress", "User_fld": "", "latlong": "36.98435001400502,-86.43364197874146" }, "geometry": { "type": "Point", "coordinates": [ -86.433641978741463, 36.984350014005017 ] } },
{ "type": "Feature", "properties": { "NAME": "ARBYS RESTAURANT GROUP", "ABC START FOR LICENSE YEAR": null, "START DATE DATE": "01\/01\/2007", "ADDRESS": "1818 RUSSELLVILLE RD", "CITY": "BOWLING GREEN", "ST": "KY", "ZIP": "42101", "COUNTRY": "UNITED STATES", "DAY PHONE": "000-000-0000", "DESCRIPTION '1": "RESTAURANT", "CUISINE": "AMERICAN", "OWNERSHIP": "CORPORATE", "TYPE": "BRICK\/MORTAR", "result_num": "0", "score": "100", "address_match": "1818 Russellville Rd, Bowling Green, Kentucky, 42101", "Loc_name": "World", "Addr_type": "PointAddress", "User_fld": "", "latlong": "36.98111899987846,-86.46606603007115" }, "geometry": { "type": "Point", "coordinates": [ -86.466066030071147, 36.981118999878461 ] } },
{ "type": "Feature", "properties": { "NAME": "ARBY'S RESTAURANT GROUP", "ABC START FOR LICENSE YEAR": null, "START DATE DATE": "01\/01\/2008", "ADDRESS": "1818 RUSSELLVILLE RD", "CITY": "BOWLING GREEN", "ST": "KY", "ZIP": "42101", "COUNTRY": "UNITED STATES", "DAY PHONE": "000-000-0000", "DESCRIPTION '1": "RESTAURANT", "CUISINE": "AMERICAN", "OWNERSHIP": "CORPORATE", "TYPE": "BRICK\/MORTAR", "result_num": "0", "score": "100", "address_match": "1818 Russellville Rd, Bowling Green, Kentucky, 42101", "Loc_name": "World", "Addr_type": "PointAddress", "User_fld": "", "latlong": "36.98111899987846,-86.46606603007115" }, "geometry": { "type": "Point", "coordinates": [ -86.466066030071147, 36.981118999878461 ] } },
{ "type": "Feature", "properties": { "NAME": "AUNTIE ANNES", "ABC START FOR LICENSE YEAR": null, "START DATE DATE": "10\/01\/2007", "ADDRESS": "2625 SCOTTSVILLE RD", "CITY": "BOWLING GREEN", "ST": "KY", "ZIP": "42101", "COUNTRY": "UNITED STATES", "DAY PHONE": "270-793-9273", "DESCRIPTION '1": "FAST FOOD RESTAURANT", "CUISINE": "PRETZELS", "OWNERSHIP": "CORPORATE", "TYPE": "BRICK\/MORTAR", "result_num": "0", "score": "100", "address_match": "2625 Scottsville Rd, Bowling Green, Kentucky, 42104", "Loc_name": "World", "Addr_type": "PointAddress", "User_fld": "", "latlong": "36.94865999601254,-86.42798000314644" }, "geometry": { "type": "Point", "coordinates": [ -86.427980003146445, 36.948659996012537 ] } },
{ "type": "Feature", "properties": { "NAME": "AZZIP PIZZA LLC", "ABC START FOR LICENSE YEAR": "2016", "START DATE DATE": "06\/11\/2016", "ADDRESS": "651 201 US 31W BY PASS", "CITY": "BOWLING GREEN", "ST": "KY", "ZIP": "42101", "COUNTRY": "UNITED STATES", "DAY PHONE": "000-000-0000", "DESCRIPTION '1": "PIZZA RESTAURANT", "CUISINE": "PIZZA", "OWNERSHIP": "CORPORATE", "TYPE": "BRICK\/MORTAR", "result_num": "0", "score": "97.91", "address_match": "201 US-31W, Bowling Green, Kentucky, 42101", "Loc_name": "World", "Addr_type": "PointAddress", "User_fld": "", "latlong": "36.99833999713806,-86.42880997919887" }, "geometry": { "type": "Point", "coordinates": [ -86.428809979198874, 36.998339997138061 ] } },
{ "type": "Feature", "properties": { "NAME": "ROOSTERS WINGS", "ABC START FOR LICENSE YEAR": "2014", "START DATE DATE": "09\/01\/2014", "ADDRESS": "247 THREE SPRINGS RD", "CITY": "BOWLING GREEN", "ST": "KY", "ZIP": "42104", "COUNTRY": "UNITED STATES", "DAY PHONE": "502-964-9464", "DESCRIPTION '1": "RESTAURANT", "CUISINE": "AMERICAN", "OWNERSHIP": "CORPORATE", "TYPE": "BRICK\/MORTAR", "result_num": "0", "score": "100", "address_match": "247 Three Springs Rd, Bowling Green, Kentucky, 42104", "Loc_name": "World", "Addr_type": "PointAddress", "User_fld": "", "latlong": "36.93783698926579,-86.42128403597572" }, "geometry": { "type": "Point", "coordinates": [ -86.421284035975717, 36.93783698926579 ] } },
{ "type": "Feature", "properties": { "NAME": "WILD EGGS", "ABC START FOR LICENSE YEAR": null, "START DATE DATE": "05\/15\/2014", "ADDRESS": "804 CAMPBELL LN  STE 100", "CITY": "BOWLING GREEN", "ST": "KY", "ZIP": "42104", "COUNTRY": "UNITED STATES", "DAY PHONE": "502-619-2466", "DESCRIPTION '1": "RESTAURANT", "CUISINE": "AMERICAN", "OWNERSHIP": "CORPORATE", "TYPE": "BRICK\/MORTAR", "result_num": "0", "score": "100", "address_match": "804 Campbell Ln, Ste 100, Bowling Green, Kentucky, 42104", "Loc_name": "World", "Addr_type": "Subaddress", "User_fld": "", "latlong": "36.96211299251864,-86.4615669597227" }, "geometry": { "type": "Point", "coordinates": [ -86.461566959722703, 36.962112992518641 ] } },
{ "type": "Feature", "properties": { "NAME": "BOB EVANS RESTAURANTS LLC", "ABC START FOR LICENSE YEAR": null, "START DATE DATE": "04\/29\/2017", "ADDRESS": "145 THREE SPRINGS RD", "CITY": "BOWLING GREEN", "ST": "KY", "ZIP": "42104", "COUNTRY": "UNITED STATES", "DAY PHONE": "270-781-3799", "DESCRIPTION '1": "RESTAURANT", "CUISINE": "AMERICAN", "OWNERSHIP": "CORPORATE", "TYPE": "BRICK\/MORTAR", "result_num": "0", "score": "100", "address_match": "145 Three Springs Rd, Bowling Green, Kentucky, 42104", "Loc_name": "World", "Addr_type": "PointAddress", "User_fld": "", "latlong": "36.938971982774774,-86.42166298181827" }, "geometry": { "type": "Point", "coordinates": [ -86.421662981818272, 36.938971982774774 ] } },
{ "type": "Feature", "properties": { "NAME": "BRUSTERS OF BOWLING GREEN", "ABC START FOR LICENSE YEAR": null, "START DATE DATE": "10\/01\/2015", "ADDRESS": "2712 SCOTTSVILLE RD", "CITY": "BOWLING GREEN", "ST": "KY", "ZIP": "42101", "COUNTRY": "UNITED STATES", "DAY PHONE": "270-842-9839", "DESCRIPTION '1": "ICE CREAM", "CUISINE": "ICE CREAM", "OWNERSHIP": "CORPORATE", "TYPE": "BRICK\/MORTAR", "result_num": "0", "score": "100", "address_match": "2712 Scottsville Rd, Bowling Green, Kentucky, 42104", "Loc_name": "World", "Addr_type": "PointAddress", "User_fld": "", "latlong": "36.94813901882067,-86.42333198637857" }, "geometry": { "type": "Point", "coordinates": [ -86.423331986378571, 36.948139018820669 ] } },
{ "type": "Feature", "properties": { "NAME": "BUFFALO WILD WINGS #19", "ABC START FOR LICENSE YEAR": "1997", "START DATE DATE": "11\/01\/1997", "ADDRESS": "1760 SCOTTSVILLE RD", "CITY": "BOWLING GREEN", "ST": "KY", "ZIP": "42104", "COUNTRY": "UNITED STATES", "DAY PHONE": "270-842-9464", "DESCRIPTION '1": "RESTAURANT & BAR", "CUISINE": "AMERICAN", "OWNERSHIP": "CORPORATE", "TYPE": "BRICK\/MORTAR", "result_num": "0", "score": "100", "address_match": "1760 Scottsville Rd, Bowling Green, Kentucky, 42104", "Loc_name": "World", "Addr_type": "PointAddress", "User_fld": "", "latlong": "36.967489983405684,-86.43208596223597" }, "geometry": { "type": "Point", "coordinates": [ -86.432085962235973, 36.967489983405684 ] } },
{ "type": "Feature", "properties": { "NAME": "BURGER KING", "ABC START FOR LICENSE YEAR": null, "START DATE DATE": "01\/19\/1982", "ADDRESS": "1049 US 31W BYPASS", "CITY": "BOWLING GREEN", "ST": "KY", "ZIP": "42104", "COUNTRY": "UNITED STATES", "DAY PHONE": "000-000-0000", "DESCRIPTION '1": "RESTAURANT", "CUISINE": "AMERICAN", "OWNERSHIP": "CORPORATE", "TYPE": "BRICK\/MORTAR", "result_num": "0", "score": "100", "address_match": "1049 Us 31w Byp, Bowling Green, Kentucky, 42101", "Loc_name": "World", "Addr_type": "PointAddress", "User_fld": "", "latlong": "36.98408300847936,-86.43689901867737" }, "geometry": { "type": "Point", "coordinates": [ -86.436899018677366, 36.984083008479359 ] } },
{ "type": "Feature", "properties": { "NAME": "CAPTAIN D'S #3316  LLC", "ABC START FOR LICENSE YEAR": null, "START DATE DATE": "09\/03\/2000", "ADDRESS": "1626 US 31W BYPASS", "CITY": "BOWLING GREEN", "ST": "KY", "ZIP": "42101", "COUNTRY": "UNITED STATES", "DAY PHONE": "270-842-4808", "DESCRIPTION '1": "RESTAURANT", "CUISINE": "SEAFOOD", "OWNERSHIP": "CORPORATE", "TYPE": "BRICK\/MORTAR", "result_num": "0", "score": "100", "address_match": "1626 Us 31w Byp, Bowling Green, Kentucky, 42101", "Loc_name": "World", "Addr_type": "PointAddress", "User_fld": "", "latlong": "36.97898500923951,-86.45072203429915" }, "geometry": { "type": "Point", "coordinates": [ -86.450722034299147, 36.978985009239508 ] } },
{ "type": "Feature", "properties": { "NAME": "CHEDDAR'S CASUAL CAFE INC", "ABC START FOR LICENSE YEAR": null, "START DATE DATE": "01\/04\/2017", "ADDRESS": "701 CAMPBELL LN", "CITY": "BOWLING GREEN", "ST": "KY", "ZIP": "42101", "COUNTRY": "UNITED STATES", "DAY PHONE": "000-000-0000", "DESCRIPTION '1": "RESTAURANT", "CUISINE": "AMERICAN", "OWNERSHIP": "CORPORATE", "TYPE": "BRICK\/MORTAR", "result_num": "0", "score": "100", "address_match": "701 Campbell Ln, Bowling Green, Kentucky, 42104", "Loc_name": "World", "Addr_type": "PointAddress", "User_fld": "", "latlong": "36.96125300925283,-86.4678930335063" }, "geometry": { "type": "Point", "coordinates": [ -86.4678930335063, 36.961253009252829 ] } },
{ "type": "Feature", "properties": { "NAME": "CHICK-FIL-A", "ABC START FOR LICENSE YEAR": null, "START DATE DATE": "02\/01\/2010", "ADDRESS": "2625 SCOTTSVILLE RD", "CITY": "BOWLING GREEN", "ST": "KY", "ZIP": "42101", "COUNTRY": "UNITED STATES", "DAY PHONE": "270-782-9931", "DESCRIPTION '1": "RESTAURANT   &", "CUISINE": "AMERICAN", "OWNERSHIP": "CORPORATE", "TYPE": "BRICK\/MORTAR", "result_num": "0", "score": "100", "address_match": "2625 Scottsville Rd, Bowling Green, Kentucky, 42104", "Loc_name": "World", "Addr_type": "PointAddress", "User_fld": "", "latlong": "36.94865999601254,-86.42798000314644" }, "geometry": { "type": "Point", "coordinates": [ -86.427980003146445, 36.948659996012537 ] } },
{ "type": "Feature", "properties": { "NAME": "CHICK-FIL-A", "ABC START FOR LICENSE YEAR": null, "START DATE DATE": "01\/01\/2015", "ADDRESS": "1766 CAMPBELL LN", "CITY": "BOWLING GREEN", "ST": "KY", "ZIP": "42104", "COUNTRY": "UNITED STATES", "DAY PHONE": "270-782-6807", "DESCRIPTION '1": "RESTAURANT", "CUISINE": "AMERICAN", "OWNERSHIP": "CORPORATE", "TYPE": "BRICK\/MORTAR", "result_num": "0", "score": "100", "address_match": "1766 Campbell Ln, Bowling Green, Kentucky, 42104", "Loc_name": "World", "Addr_type": "PointAddress", "User_fld": "", "latlong": "36.9533130000128,-86.43281401434578" }, "geometry": { "type": "Point", "coordinates": [ -86.43281401434578, 36.953313000012798 ] } },
{ "type": "Feature", "properties": { "NAME": "CHIPOLTLE MEXICAN GRILL", "ABC START FOR LICENSE YEAR": "2016", "START DATE DATE": "05\/26\/2016", "ADDRESS": "3040 SCOTTSVILLE RD", "CITY": "BOWLING GREEN", "ST": "KY", "ZIP": "42104", "COUNTRY": "UNITED STATES", "DAY PHONE": "303-222-2524", "DESCRIPTION '1": "RESTAURANT", "CUISINE": "MEXICAN", "OWNERSHIP": "CORPORATE", "TYPE": "BRICK\/MORTAR", "result_num": "0", "score": "100", "address_match": "3040 Scottsville Rd, Bowling Green, Kentucky, 42104", "Loc_name": "World", "Addr_type": "PointAddress", "User_fld": "", "latlong": "36.94275498713495,-86.42103199214722" }, "geometry": { "type": "Point", "coordinates": [ -86.421031992147221, 36.942754987134947 ] } },
{ "type": "Feature", "properties": { "NAME": "CHUCK E CHEESE'S", "ABC START FOR LICENSE YEAR": "2004", "START DATE DATE": "04\/27\/2004", "ADDRESS": "2625 SCOTTSVILLE RD  SPACE 300", "CITY": "BOWLING GREEN", "ST": "KY", "ZIP": "42101", "COUNTRY": "UNITED STATES", "DAY PHONE": "000-000-0000", "DESCRIPTION '1": "PIZZA FAMILY RESTAURANT ENT CT", "CUISINE": "PIZZA", "OWNERSHIP": "CORPORATE", "TYPE": "BRICK\/MORTAR", "result_num": "0", "score": "100", "address_match": "2625 Scottsville Rd, Ste 300, Bowling Green, Kentucky, 42104", "Loc_name": "World", "Addr_type": "Subaddress", "User_fld": "", "latlong": "36.95116098828203,-86.43248200716101" }, "geometry": { "type": "Point", "coordinates": [ -86.432482007161013, 36.951160988282027 ] } },
{ "type": "Feature", "properties": { "NAME": "CHUY'S", "ABC START FOR LICENSE YEAR": "2012", "START DATE DATE": "04\/01\/2012", "ADDRESS": "3620 KEN BALE BLVD", "CITY": "BOWLING GREEN", "ST": "KY", "ZIP": "42101", "COUNTRY": "UNITED STATES", "DAY PHONE": "270-796-2999", "DESCRIPTION '1": "RESTAURANT", "CUISINE": "MEXICAN", "OWNERSHIP": "CORPORATE", "TYPE": "BRICK\/MORTAR", "result_num": "0", "score": "96.59", "address_match": "Ken Bale Blvd, Bowling Green, Kentucky, 42104", "Loc_name": "World", "Addr_type": "StreetName", "User_fld": "", "latlong": "36.94025504260336,-86.42033994031155" }, "geometry": { "type": "Point", "coordinates": [ -86.42033994031155, 36.940255042603361 ] } },
{ "type": "Feature", "properties": { "NAME": "CI CI'S PIZZA", "ABC START FOR LICENSE YEAR": null, "START DATE DATE": "03\/18\/2013", "ADDRESS": "760 117 CAMPBELL LN", "CITY": "BOWLING GREEN", "ST": "KY", "ZIP": "42101", "COUNTRY": "UNITED STATES", "DAY PHONE": "270-843-9299", "DESCRIPTION '1": "RESTAURANT", "CUISINE": "PIZZA", "OWNERSHIP": "CORPORATE", "TYPE": "BRICK\/MORTAR", "result_num": "0", "score": "99.29", "address_match": "117 Campbell Ln, Bowling Green, Kentucky, 42101", "Loc_name": "World", "Addr_type": "StreetAddress", "User_fld": "", "latlong": "36.967769442900526,-86.47984952510053" }, "geometry": { "type": "Point", "coordinates": [ -86.479849525100533, 36.967769442900526 ] } },
{ "type": "Feature", "properties": { "NAME": "CINNABON 102333", "ABC START FOR LICENSE YEAR": null, "START DATE DATE": "11\/20\/2018", "ADDRESS": "2625 SCOTTSVILLE RD SUITE 134", "CITY": "BOWLING GREEN", "ST": "KY", "ZIP": "42104", "COUNTRY": "UNITED STATES", "DAY PHONE": "615-972-0890", "DESCRIPTION '1": "CINNABON BAKERY", "CUISINE": "BAKERY", "OWNERSHIP": "CORPORATE", "TYPE": "BRICK\/MORTAR", "result_num": "0", "score": "100", "address_match": "2625 Scottsville Rd, Ste 134, Bowling Green, Kentucky, 42104", "Loc_name": "World", "Addr_type": "Subaddress", "User_fld": "", "latlong": "36.95116098828203,-86.43248200716101" }, "geometry": { "type": "Point", "coordinates": [ -86.432482007161013, 36.951160988282027 ] } },
{ "type": "Feature", "properties": { "NAME": "COOK OUT BOWLING GREEN INC", "ABC START FOR LICENSE YEAR": null, "START DATE DATE": "09\/25\/2014", "ADDRESS": "730 CAMPBELL LN", "CITY": "BOWLING GREEN", "ST": "KY", "ZIP": "42104", "COUNTRY": "UNITED STATES", "DAY PHONE": "336-313-5226", "DESCRIPTION '1": "RESTAURANT", "CUISINE": "AMERICAN", "OWNERSHIP": "CORPORATE", "TYPE": "BRICK\/MORTAR", "result_num": "0", "score": "100", "address_match": "730 Campbell Ln, Bowling Green, Kentucky, 42104", "Loc_name": "World", "Addr_type": "PointAddress", "User_fld": "", "latlong": "36.9623750108119,-86.46598497706744" }, "geometry": { "type": "Point", "coordinates": [ -86.465984977067436, 36.962375010811897 ] } },
{ "type": "Feature", "properties": { "NAME": "CORNER BAKERY CAFE", "ABC START FOR LICENSE YEAR": null, "START DATE DATE": "01\/01\/2015", "ADDRESS": "1951 SCOTTSVILLE RD", "CITY": "BOWLING GREEN", "ST": "KY", "ZIP": "42104", "COUNTRY": "UNITED STATES", "DAY PHONE": "270-781-2834", "DESCRIPTION '1": "RESTAURANT", "CUISINE": "AMERICAN", "OWNERSHIP": "CORPORATE", "TYPE": "BRICK\/MORTAR", "result_num": "0", "score": "100", "address_match": "1951 Scottsville Rd, Bowling Green, Kentucky, 42104", "Loc_name": "World", "Addr_type": "PointAddress", "User_fld": "", "latlong": "36.96094598013951,-86.43084996679372" }, "geometry": { "type": "Point", "coordinates": [ -86.430849966793716, 36.960945980139513 ] } },
{ "type": "Feature", "properties": { "NAME": "CRACKER BARREL OLD COUNTRY STORE, INC", "ABC START FOR LICENSE YEAR": null, "START DATE DATE": "08\/31\/1989", "ADDRESS": "1960 MEL BROWNING RD", "CITY": "BOWLING GREEN", "ST": "KY", "ZIP": "42104", "COUNTRY": "UNITED STATES", "DAY PHONE": "000-000-0000", "DESCRIPTION '1": "RESTAURANT\/GIFT SHOP", "CUISINE": "AMERICAN", "OWNERSHIP": "CORPORATE", "TYPE": "BRICK\/MORTAR", "result_num": "0", "score": "98.29", "address_match": "1960 Mel Browning St, Bowling Green, Kentucky, 42104", "Loc_name": "World", "Addr_type": "PointAddress", "User_fld": "", "latlong": "36.93141599042873,-86.41833100766797" }, "geometry": { "type": "Point", "coordinates": [ -86.418331007667973, 36.931415990428732 ] } },
{ "type": "Feature", "properties": { "NAME": "DAIRY QUEEN", "ABC START FOR LICENSE YEAR": null, "START DATE DATE": "03\/28\/2011", "ADDRESS": "2430 NASHVILLE RD", "CITY": "BOWLING GREEN", "ST": "KY", "ZIP": "42104", "COUNTRY": "UNITED STATES", "DAY PHONE": "270-745-9966", "DESCRIPTION '1": "RESTAURANT", "CUISINE": "AMERICAN", "OWNERSHIP": "CORPORATE", "TYPE": "BRICK\/MORTAR", "result_num": "0", "score": "100", "address_match": "2430 Nashville Rd, Bowling Green, Kentucky, 42101", "Loc_name": "World", "Addr_type": "PointAddress", "User_fld": "", "latlong": "36.96005200825634,-86.46899701397354" }, "geometry": { "type": "Point", "coordinates": [ -86.468997013973535, 36.960052008256341 ] } },
{ "type": "Feature", "properties": { "NAME": "DENNYS INC AND LLC", "ABC START FOR LICENSE YEAR": null, "START DATE DATE": "01\/01\/2000", "ADDRESS": "WKU CAMPUS FRANCHISE LOCATION", "CITY": "BOWLING GREEN", "ST": "KY", "ZIP": "42101", "COUNTRY": "UNITED STATES", "DAY PHONE": "000-000-0000", "DESCRIPTION '1": "RESTAURANT", "CUISINE": "AMERICAN", "OWNERSHIP": "CORPORATE", "TYPE": "BRICK\/MORTAR", "result_num": "0", "score": "80", "address_match": "Bowling Green, Kentucky", "Loc_name": "World", "Addr_type": "Locality", "User_fld": "", "latlong": "36.994620000000054,-86.44557999999995" }, "geometry": { "type": "Point", "coordinates": [ -86.44558, 36.99462 ] } },
{ "type": "Feature", "properties": { "NAME": "DOMINO S PIZZA", "ABC START FOR LICENSE YEAR": null, "START DATE DATE": "07\/22\/1992", "ADDRESS": "1383 CENTER ST", "CITY": "BOWLING GREEN", "ST": "KY", "ZIP": "42101", "COUNTRY": "UNITED STATES", "DAY PHONE": "000-000-0000", "DESCRIPTION '1": "RESTAURANT", "CUISINE": "PIZZA", "OWNERSHIP": "CORPORATE", "TYPE": "BRICK\/MORTAR", "result_num": "0", "score": "100", "address_match": "1383 Center St, Bowling Green, Kentucky, 42101", "Loc_name": "World", "Addr_type": "PointAddress", "User_fld": "", "latlong": "36.989349986887234,-86.4514100209118" }, "geometry": { "type": "Point", "coordinates": [ -86.451410020911794, 36.989349986887234 ] } },
{ "type": "Feature", "properties": { "NAME": "DOMINO S PIZZA #1380", "ABC START FOR LICENSE YEAR": null, "START DATE DATE": "01\/08\/1993", "ADDRESS": "3901 SCOTTSVILLE RD", "CITY": "BOWLING GREEN", "ST": "KY", "ZIP": "42101", "COUNTRY": "UNITED STATES", "DAY PHONE": "000-000-0000", "DESCRIPTION '1": "RESTAURANT", "CUISINE": "PIZZA", "OWNERSHIP": "CORPORATE", "TYPE": "BRICK\/MORTAR", "result_num": "0", "score": "100", "address_match": "3901 Scottsville Rd, Bowling Green, Kentucky, 42104", "Loc_name": "World", "Addr_type": "PointAddress", "User_fld": "", "latlong": "36.93074501907954,-86.41487598717906" }, "geometry": { "type": "Point", "coordinates": [ -86.414875987179059, 36.930745019079538 ] } },
{ "type": "Feature", "properties": { "NAME": "DOMINO'S PIZZA", "ABC START FOR LICENSE YEAR": null, "START DATE DATE": "12\/28\/1979", "ADDRESS": "1021 BROADWAY AVE", "CITY": "BOWLING GREEN", "ST": "KY", "ZIP": "42101", "COUNTRY": "UNITED STATES", "DAY PHONE": "000-000-0000", "DESCRIPTION '1": "RESTAURANT", "CUISINE": "PIZZA", "OWNERSHIP": "CORPORATE", "TYPE": "BRICK\/MORTAR", "result_num": "0", "score": "100", "address_match": "1021 Broadway Ave, Bowling Green, Kentucky, 42104", "Loc_name": "World", "Addr_type": "PointAddress", "User_fld": "", "latlong": "36.982083002562675,-86.43960696013626" }, "geometry": { "type": "Point", "coordinates": [ -86.43960696013626, 36.982083002562675 ] } },
{ "type": "Feature", "properties": { "NAME": "DREYER'S GRAND ICE CREAM INC", "ABC START FOR LICENSE YEAR": null, "START DATE DATE": "01\/01\/2011", "ADDRESS": "0 CITYWIDE", "CITY": "BOWLING GREEN", "ST": "KY", "ZIP": "42101", "COUNTRY": "UNITED STATES", "DAY PHONE": "000-000-0000", "DESCRIPTION '1": "ICE CREAM DELIVERY", "CUISINE": "ICE CREAM", "OWNERSHIP": "CORPORATE", "TYPE": "BRICK\/MORTAR", "result_num": "0", "score": "89.71", "address_match": "Bowling Green, Kentucky", "Loc_name": "World", "Addr_type": "Locality", "User_fld": "", "latlong": "36.994620000000054,-86.44557999999995" }, "geometry": { "type": "Point", "coordinates": [ -86.44558, 36.99462 ] } },
{ "type": "Feature", "properties": { "NAME": "FAZOLI'S", "ABC START FOR LICENSE YEAR": null, "START DATE DATE": "05\/01\/1996", "ADDRESS": "2915 SCOTTSVILLE RD", "CITY": "BOWLING GREEN", "ST": "KY", "ZIP": "42101", "COUNTRY": "UNITED STATES", "DAY PHONE": "270-796-3934", "DESCRIPTION '1": "RESTUARANT", "CUISINE": "ITALIAN", "OWNERSHIP": "CORPORATE", "TYPE": "BRICK\/MORTAR", "result_num": "0", "score": "100", "address_match": "2915 Scottsville Rd, Bowling Green, Kentucky, 42104", "Loc_name": "World", "Addr_type": "PointAddress", "User_fld": "", "latlong": "36.94517501021976,-86.42359501050021" }, "geometry": { "type": "Point", "coordinates": [ -86.423595010500208, 36.945175010219756 ] } },
{ "type": "Feature", "properties": { "NAME": "FIVE GUYS OPERATIONS LLC", "ABC START FOR LICENSE YEAR": null, "START DATE DATE": "03\/01\/2014", "ADDRESS": "1689 CAMPBELL LN STE 500", "CITY": "BOWLING GREEN", "ST": "KY", "ZIP": "42104", "COUNTRY": "UNITED STATES", "DAY PHONE": "703-339-9500", "DESCRIPTION '1": "RESTAURANT", "CUISINE": "AMERICAN", "OWNERSHIP": "CORPORATE", "TYPE": "BRICK\/MORTAR", "result_num": "0", "score": "100", "address_match": "1689 Campbell Ln, Ste 500, Bowling Green, Kentucky, 42104", "Loc_name": "World", "Addr_type": "Subaddress", "User_fld": "", "latlong": "36.950986016053236,-86.43537300938524" }, "geometry": { "type": "Point", "coordinates": [ -86.435373009385245, 36.950986016053236 ] } },
{ "type": "Feature", "properties": { "NAME": "JIMMY JOHN'S", "ABC START FOR LICENSE YEAR": null, "START DATE DATE": "08\/21\/2013", "ADDRESS": "1916 RUSSELLVILLE RD", "CITY": "BOWLING GREEN", "ST": "KY", "ZIP": "42101", "COUNTRY": "UNITED STATES", "DAY PHONE": "270-393-8884", "DESCRIPTION '1": "FAST FOOD FRANCHISE", "CUISINE": "SANDWICH SHOP", "OWNERSHIP": "CORPORATE", "TYPE": "BRICK\/MORTAR", "result_num": "0", "score": "100", "address_match": "1916 Russellville Rd, Bowling Green, Kentucky, 42101", "Loc_name": "World", "Addr_type": "PointAddress", "User_fld": "", "latlong": "36.978895993427784,-86.46808497908901" }, "geometry": { "type": "Point", "coordinates": [ -86.468084979089014, 36.978895993427784 ] } },
{ "type": "Feature", "properties": { "NAME": "JIMMY JOHN'S", "ABC START FOR LICENSE YEAR": null, "START DATE DATE": "04\/20\/2012", "ADDRESS": "1689 CAMPBELL LN  STE 600", "CITY": "BOWLING GREEN", "ST": "KY", "ZIP": "42104", "COUNTRY": "UNITED STATES", "DAY PHONE": "270-303-2240", "DESCRIPTION '1": "RESTAURANT", "CUISINE": "SANDWICH SHOP", "OWNERSHIP": "CORPORATE", "TYPE": "BRICK\/MORTAR", "result_num": "0", "score": "100", "address_match": "1689 Campbell Ln, Ste 600, Bowling Green, Kentucky, 42104", "Loc_name": "World", "Addr_type": "Subaddress", "User_fld": "", "latlong": "36.950986016053236,-86.43537300938524" }, "geometry": { "type": "Point", "coordinates": [ -86.435373009385245, 36.950986016053236 ] } },
{ "type": "Feature", "properties": { "NAME": "FREDDY'S FROZEN CUSTARD & STEAKBURGERS", "ABC START FOR LICENSE YEAR": null, "START DATE DATE": "10\/13\/2013", "ADDRESS": "2940 SCOTTSVILLE RD", "CITY": "BOWLING GREEN", "ST": "KY", "ZIP": "42104", "COUNTRY": "UNITED STATES", "DAY PHONE": "316-684-8100", "DESCRIPTION '1": "RESTAURANT", "CUISINE": "AMERICAN", "OWNERSHIP": "CORPORATE", "TYPE": "BRICK\/MORTAR", "result_num": "0", "score": "100", "address_match": "2940 Scottsville Rd, Bowling Green, Kentucky, 42104", "Loc_name": "World", "Addr_type": "PointAddress", "User_fld": "", "latlong": "36.94465197946161,-86.42181603537026" }, "geometry": { "type": "Point", "coordinates": [ -86.421816035370256, 36.944651979461611 ] } },
{ "type": "Feature", "properties": { "NAME": "GIGIS CUPCAKES", "ABC START FOR LICENSE YEAR": null, "START DATE DATE": "02\/12\/2018", "ADDRESS": "760 CAMPBELL LN #107", "CITY": "BOWLING GREEN", "ST": "KY", "ZIP": "42101", "COUNTRY": "UNITED STATES", "DAY PHONE": "270-904-1400", "DESCRIPTION '1": "CUPCAKES", "CUISINE": "BAKERY", "OWNERSHIP": "CORPORATE", "TYPE": "BRICK\/MORTAR", "result_num": "0", "score": "100", "address_match": "760 Campbell Ln, Ste 107, Bowling Green, Kentucky, 42104", "Loc_name": "World", "Addr_type": "Subaddress", "User_fld": "", "latlong": "36.96235799554846,-86.4639589872509" }, "geometry": { "type": "Point", "coordinates": [ -86.463958987250905, 36.962357995548459 ] } },
{ "type": "Feature", "properties": { "NAME": "STEAK AND SHAKE", "ABC START FOR LICENSE YEAR": null, "START DATE DATE": "12\/26\/2018", "ADDRESS": "1680 SCOTTSVILLE RD", "CITY": "BOWLING GREEN", "ST": "KY", "ZIP": "42104", "COUNTRY": "UNITED STATES", "DAY PHONE": "270-783-9260", "DESCRIPTION '1": "STEAK AND SHAKE FRANCHISE", "CUISINE": "AMERICAN", "OWNERSHIP": "CORPORATE", "TYPE": "BRICK\/MORTAR", "result_num": "0", "score": "100", "address_match": "1680 Scottsville Rd, Bowling Green, Kentucky, 42104", "Loc_name": "World", "Addr_type": "PointAddress", "User_fld": "", "latlong": "36.97037000533676,-86.43359302842691" }, "geometry": { "type": "Point", "coordinates": [ -86.433593028426912, 36.970370005336761 ] } },
{ "type": "Feature", "properties": { "NAME": "HARDEE'S", "ABC START FOR LICENSE YEAR": null, "START DATE DATE": "07\/01\/2001", "ADDRESS": "592 INTERSTATE DR", "CITY": "BOWLING GREEN", "ST": "KY", "ZIP": "42101", "COUNTRY": "UNITED STATES", "DAY PHONE": "000-000-0000", "DESCRIPTION '1": "FAST FOOD RESTAURANT", "CUISINE": "AMERICAN", "OWNERSHIP": "CORPORATE", "TYPE": "BRICK\/MORTAR", "result_num": "0", "score": "100", "address_match": "592 Interstate Drive, Bowling Green, Kentucky, 42101", "Loc_name": "World", "Addr_type": "PointAddress", "User_fld": "", "latlong": "37.008892980873995,-86.37427103071207" }, "geometry": { "type": "Point", "coordinates": [ -86.374271030712066, 37.008892980873995 ] } },
{ "type": "Feature", "properties": { "NAME": "HARDEE'S", "ABC START FOR LICENSE YEAR": null, "START DATE DATE": "07\/01\/2001", "ADDRESS": "127 CUMBERLAND TRACE", "CITY": "BOWLING GREEN", "ST": "KY", "ZIP": "42101", "COUNTRY": "UNITED STATES", "DAY PHONE": "000-000-0000", "DESCRIPTION '1": "FAST FOOD RESTAURANT", "CUISINE": "AMERICAN", "OWNERSHIP": "CORPORATE", "TYPE": "BRICK\/MORTAR", "result_num": "0", "score": "98.97", "address_match": "127 Cumberland Trace Rd, Bowling Green, Kentucky, 42103", "Loc_name": "World", "Addr_type": "PointAddress", "User_fld": "", "latlong": "36.93296601387344,-86.41577201262851" }, "geometry": { "type": "Point", "coordinates": [ -86.415772012628508, 36.93296601387344 ] } },
{ "type": "Feature", "properties": { "NAME": "HARDEE'S", "ABC START FOR LICENSE YEAR": null, "START DATE DATE": "06\/01\/2002", "ADDRESS": "2370 RUSSELLVILLE RD", "CITY": "BOWLING GREEN", "ST": "KY", "ZIP": "42101", "COUNTRY": "UNITED STATES", "DAY PHONE": "270-842-4380", "DESCRIPTION '1": "FAST FOOD RESTAURANT", "CUISINE": "AMERICAN", "OWNERSHIP": "CORPORATE", "TYPE": "BRICK\/MORTAR", "result_num": "0", "score": "100", "address_match": "2370 Russellville Rd, Bowling Green, Kentucky, 42101", "Loc_name": "World", "Addr_type": "PointAddress", "User_fld": "", "latlong": "36.96843198359406,-86.47984596271061" }, "geometry": { "type": "Point", "coordinates": [ -86.479845962710613, 36.968431983594058 ] } },
{ "type": "Feature", "properties": { "NAME": "HARDEE'S", "ABC START FOR LICENSE YEAR": null, "START DATE DATE": "08\/04\/2008", "ADDRESS": "241 BRENNER ST", "CITY": "BOWLING GREEN", "ST": "KY", "ZIP": "42101", "COUNTRY": "UNITED STATES", "DAY PHONE": "270-843-0370", "DESCRIPTION '1": "RESTAURANT", "CUISINE": "AMERICAN", "OWNERSHIP": "CORPORATE", "TYPE": "BRICK\/MORTAR", "result_num": "0", "score": "100", "address_match": "241 Brenner St, Bowling Green, Kentucky, 42101", "Loc_name": "World", "Addr_type": "PointAddress", "User_fld": "", "latlong": "37.03577500164312,-86.3384379755419" }, "geometry": { "type": "Point", "coordinates": [ -86.338437975541893, 37.035775001643117 ] } },
{ "type": "Feature", "properties": { "NAME": "HARDEE'S", "ABC START FOR LICENSE YEAR": null, "START DATE DATE": "03\/26\/2013", "ADDRESS": "2370 RUSSELLVILLE RD", "CITY": "BOWLING GREEN", "ST": "KY", "ZIP": "42101", "COUNTRY": "UNITED STATES", "DAY PHONE": "000-000-0000", "DESCRIPTION '1": "RESTAURANT", "CUISINE": "AMERICAN", "OWNERSHIP": "CORPORATE", "TYPE": "BRICK\/MORTAR", "result_num": "0", "score": "100", "address_match": "2370 Russellville Rd, Bowling Green, Kentucky, 42101", "Loc_name": "World", "Addr_type": "PointAddress", "User_fld": "", "latlong": "36.96843198359406,-86.47984596271061" }, "geometry": { "type": "Point", "coordinates": [ -86.479845962710613, 36.968431983594058 ] } },
{ "type": "Feature", "properties": { "NAME": "HARDEE'S", "ABC START FOR LICENSE YEAR": null, "START DATE DATE": "03\/26\/2013", "ADDRESS": "592 INTERSTATE DR", "CITY": "BOWLING GREEN", "ST": "KY", "ZIP": "42101", "COUNTRY": "UNITED STATES", "DAY PHONE": "000-000-0000", "DESCRIPTION '1": "RESTAURANT", "CUISINE": "AMERICAN", "OWNERSHIP": "CORPORATE", "TYPE": "BRICK\/MORTAR", "result_num": "0", "score": "100", "address_match": "592 Interstate Drive, Bowling Green, Kentucky, 42101", "Loc_name": "World", "Addr_type": "PointAddress", "User_fld": "", "latlong": "37.008892980873995,-86.37427103071207" }, "geometry": { "type": "Point", "coordinates": [ -86.374271030712066, 37.008892980873995 ] } },
{ "type": "Feature", "properties": { "NAME": "HARDEE'S", "ABC START FOR LICENSE YEAR": null, "START DATE DATE": "03\/26\/2013", "ADDRESS": "127 CUMBERLAND TRACE RD", "CITY": "BOWLING GREEN", "ST": "KY", "ZIP": "42101", "COUNTRY": "UNITED STATES", "DAY PHONE": "000-000-0000", "DESCRIPTION '1": "RESTAURANT", "CUISINE": "AMERICAN", "OWNERSHIP": "CORPORATE", "TYPE": "BRICK\/MORTAR", "result_num": "0", "score": "100", "address_match": "127 Cumberland Trace Rd, Bowling Green, Kentucky, 42103", "Loc_name": "World", "Addr_type": "PointAddress", "User_fld": "", "latlong": "36.93296601387344,-86.41577201262851" }, "geometry": { "type": "Point", "coordinates": [ -86.415772012628508, 36.93296601387344 ] } },
{ "type": "Feature", "properties": { "NAME": "HARDEE'S ", "ABC START FOR LICENSE YEAR": null, "START DATE DATE": "03\/26\/2013", "ADDRESS": "241 BRENNER ST", "CITY": "BOWLING GREEN", "ST": "KY", "ZIP": "42101", "COUNTRY": "UNITED STATES", "DAY PHONE": "000-000-0000", "DESCRIPTION '1": "RESTAURANT", "CUISINE": "AMERICAN", "OWNERSHIP": "CORPORATE", "TYPE": "BRICK\/MORTAR", "result_num": "0", "score": "100", "address_match": "241 Brenner St, Bowling Green, Kentucky, 42101", "Loc_name": "World", "Addr_type": "PointAddress", "User_fld": "", "latlong": "37.03577500164312,-86.3384379755419" }, "geometry": { "type": "Point", "coordinates": [ -86.338437975541893, 37.035775001643117 ] } },
{ "type": "Feature", "properties": { "NAME": "HONEYBAKED HAM CO & CAFE", "ABC START FOR LICENSE YEAR": null, "START DATE DATE": "08\/10\/2006", "ADDRESS": "1051 BRYANT WAY", "CITY": "BOWLING GREEN", "ST": "KY", "ZIP": "42103", "COUNTRY": "UNITED STATES", "DAY PHONE": "270-796-9444", "DESCRIPTION '1": "RESTAURANT", "CUISINE": "SANDWICH SHOP", "OWNERSHIP": "CORPORATE", "TYPE": "BRICK\/MORTAR", "result_num": "0", "score": "100", "address_match": "1051 Bryant Way, Bowling Green, Kentucky, 42103", "Loc_name": "World", "Addr_type": "PointAddress", "User_fld": "", "latlong": "36.94966398037489,-86.42240997702928" }, "geometry": { "type": "Point", "coordinates": [ -86.422409977029275, 36.949663980374893 ] } },
{ "type": "Feature", "properties": { "NAME": "SONIC DRIVE IN ", "ABC START FOR LICENSE YEAR": null, "START DATE DATE": "07\/01\/2007", "ADDRESS": "700 CHURCH ST", "CITY": "BOWLING GREEN", "ST": "KY", "ZIP": "42101", "COUNTRY": "UNITED STATES", "DAY PHONE": "270-843-3252", "DESCRIPTION '1": "RESTAURANT   SONIC RESTAURANTS", "CUISINE": "AMERICAN", "OWNERSHIP": "CORPORATE", "TYPE": "BRICK\/MORTAR", "result_num": "0", "score": "100", "address_match": "700 Church St, Bowling Green, Kentucky, 42101", "Loc_name": "World", "Addr_type": "PointAddress", "User_fld": "", "latlong": "37.00467101624453,-86.44808902705465" }, "geometry": { "type": "Point", "coordinates": [ -86.44808902705465, 37.004671016244529 ] } },
{ "type": "Feature", "properties": { "NAME": "JERSEY MIKE'S SUBS", "ABC START FOR LICENSE YEAR": null, "START DATE DATE": "11\/01\/2014", "ADDRESS": "1713 SCOTTSVILLE RD STE D", "CITY": "BOWLING GREEN", "ST": "KY", "ZIP": "42104", "COUNTRY": "UNITED STATES", "DAY PHONE": "270-498-6844", "DESCRIPTION '1": "FAST FOOD SUB RESTAURANT", "CUISINE": "SANDWICH SHOP", "OWNERSHIP": "CORPORATE", "TYPE": "BRICK\/MORTAR", "result_num": "0", "score": "100", "address_match": "1713 Scottsville Rd, Ste D, Bowling Green, Kentucky, 42104", "Loc_name": "World", "Addr_type": "Subaddress", "User_fld": "", "latlong": "36.968478000242484,-86.43416098618609" }, "geometry": { "type": "Point", "coordinates": [ -86.434160986186086, 36.968478000242484 ] } },
{ "type": "Feature", "properties": { "NAME": "JETS PIZZA", "ABC START FOR LICENSE YEAR": null, "START DATE DATE": "01\/01\/2013", "ADDRESS": "1625 CAMPBELL LN  STE 101", "CITY": "BOWLING GREEN", "ST": "KY", "ZIP": "42101", "COUNTRY": "UNITED STATES", "DAY PHONE": "000-000-0000", "DESCRIPTION '1": "RESTAURANT", "CUISINE": "PIZZA", "OWNERSHIP": "CORPORATE", "TYPE": "BRICK\/MORTAR", "result_num": "0", "score": "100", "address_match": "1625 Campbell Ln, Bowling Green, Kentucky, 42104", "Loc_name": "World", "Addr_type": "PointAddress", "User_fld": "", "latlong": "36.95045099917354,-86.43790702635324" }, "geometry": { "type": "Point", "coordinates": [ -86.437907026353244, 36.95045099917354 ] } },
{ "type": "Feature", "properties": { "NAME": "JIMMY JOHNS", "ABC START FOR LICENSE YEAR": null, "START DATE DATE": "03\/01\/2016", "ADDRESS": "900 FAIRVIEW AVE STE 6", "CITY": "BOWLING GREEN", "ST": "KY", "ZIP": "42101", "COUNTRY": "UNITED STATES", "DAY PHONE": "270-393-8884", "DESCRIPTION '1": "RESTAURANT", "CUISINE": "SANDWICH SHOP", "OWNERSHIP": "CORPORATE", "TYPE": "BRICK\/MORTAR", "result_num": "0", "score": "100", "address_match": "900 Fairview Ave, Ste 6, Bowling Green, Kentucky, 42101", "Loc_name": "World", "Addr_type": "Subaddress", "User_fld": "", "latlong": "36.99126500030573,-86.43107300923721" }, "geometry": { "type": "Point", "coordinates": [ -86.43107300923721, 36.991265000305731 ] } },
{ "type": "Feature", "properties": { "NAME": "SUBWAY INC", "ABC START FOR LICENSE YEAR": null, "START DATE DATE": "02\/03\/2010", "ADDRESS": "PO BOX 51392", "CITY": "BOWLING GREEN", "ST": "KY", "ZIP": "42102", "COUNTRY": "UNITED STATES", "DAY PHONE": "270-846-1045", "DESCRIPTION '1": "SANDWICH SHOP", "CUISINE": "SANDWICH SHOP", "OWNERSHIP": "CORPORATE", "TYPE": "BRICK\/MORTAR", "result_num": "0", "score": "98", "address_match": "Bowling Green, Kentucky", "Loc_name": "World", "Addr_type": "Locality", "User_fld": "", "latlong": "36.994620000000054,-86.44557999999995" }, "geometry": { "type": "Point", "coordinates": [ -86.44558, 36.99462 ] } },
{ "type": "Feature", "properties": { "NAME": "KRISPY KREME DOUGHNUT CORP", "ABC START FOR LICENSE YEAR": null, "START DATE DATE": "12\/01\/2014", "ADDRESS": "798 CAMPBELL LANE", "CITY": "BOWLING GREEN", "ST": "KY", "ZIP": "42104", "COUNTRY": "UNITED STATES", "DAY PHONE": "336-726-8904", "DESCRIPTION '1": "DOUGHNUT SHOP", "CUISINE": "DONUTS", "OWNERSHIP": "CORPORATE", "TYPE": "BRICK\/MORTAR", "result_num": "0", "score": "100", "address_match": "798 Campbell Ln, Bowling Green, Kentucky, 42104", "Loc_name": "World", "Addr_type": "PointAddress", "User_fld": "", "latlong": "36.96193701446147,-86.46221597048557" }, "geometry": { "type": "Point", "coordinates": [ -86.462215970485573, 36.961937014461469 ] } },
{ "type": "Feature", "properties": { "NAME": "KRYSTAL", "ABC START FOR LICENSE YEAR": null, "START DATE DATE": "11\/01\/1970", "ADDRESS": "2704 SCOTTSVILLE ROAD", "CITY": "BOWLING GREEN", "ST": "KY", "ZIP": "42104", "COUNTRY": "UNITED STATES", "DAY PHONE": "000-000-0000", "DESCRIPTION '1": "RESTAURANT", "CUISINE": "AMERICAN", "OWNERSHIP": "CORPORATE", "TYPE": "BRICK\/MORTAR", "result_num": "0", "score": "100", "address_match": "2704 Scottsville Rd, Bowling Green, Kentucky, 42104", "Loc_name": "World", "Addr_type": "PointAddress", "User_fld": "", "latlong": "36.948743982682345,-86.42373498828324" }, "geometry": { "type": "Point", "coordinates": [ -86.423734988283243, 36.948743982682345 ] } },
{ "type": "Feature", "properties": { "NAME": "KY FRIED CHICKEN", "ABC START FOR LICENSE YEAR": null, "START DATE DATE": "09\/01\/1988", "ADDRESS": "2626 SCOTTSVILLE RD", "CITY": "BOWLING GREEN", "ST": "KY", "ZIP": "42104", "COUNTRY": "UNITED STATES", "DAY PHONE": "270-781-2248", "DESCRIPTION '1": "RESTAURANT", "CUISINE": "AMERICAN", "OWNERSHIP": "CORPORATE", "TYPE": "BRICK\/MORTAR", "result_num": "0", "score": "100", "address_match": "2626 Scottsville Rd, Bowling Green, Kentucky, 42104", "Loc_name": "World", "Addr_type": "PointAddress", "User_fld": "", "latlong": "36.950006003933964,-86.42406196632612" }, "geometry": { "type": "Point", "coordinates": [ -86.424061966326121, 36.950006003933964 ] } },
{ "type": "Feature", "properties": { "NAME": "KY FRIED CHICKEN", "ABC START FOR LICENSE YEAR": null, "START DATE DATE": "09\/01\/1988", "ADDRESS": "1201 US 31W BYPASS", "CITY": "BOWLING GREEN", "ST": "KY", "ZIP": "42101", "COUNTRY": "UNITED STATES", "DAY PHONE": "270-781-1768", "DESCRIPTION '1": "RESTAURANT", "CUISINE": "AMERICAN", "OWNERSHIP": "CORPORATE", "TYPE": "BRICK\/MORTAR", "result_num": "0", "score": "100", "address_match": "1201 Us 31w Byp, Bowling Green, Kentucky, 42101", "Loc_name": "World", "Addr_type": "PointAddress", "User_fld": "", "latlong": "36.98284101997635,-86.44038496838901" }, "geometry": { "type": "Point", "coordinates": [ -86.440384968389012, 36.982841019976348 ] } },
{ "type": "Feature", "properties": { "NAME": "LITTLE CAESARS PIZZA", "ABC START FOR LICENSE YEAR": null, "START DATE DATE": "10\/15\/1991", "ADDRESS": "1703 US 31W BYPASS", "CITY": "BOWLING GREEN", "ST": "KY", "ZIP": "42101", "COUNTRY": "UNITED STATES", "DAY PHONE": "270-782-9555", "DESCRIPTION '1": "PIZZA CARRY OUT", "CUISINE": "PIZZA", "OWNERSHIP": "CORPORATE", "TYPE": "BRICK\/MORTAR", "result_num": "0", "score": "97.91", "address_match": "1703 US-31W S, Bowling Green, Kentucky, 42101", "Loc_name": "World", "Addr_type": "StreetAddress", "User_fld": "", "latlong": "36.97704501272224,-86.45696430245735" }, "geometry": { "type": "Point", "coordinates": [ -86.456964302457351, 36.977045012722243 ] } },
{ "type": "Feature", "properties": { "NAME": "LITTLE CAESARS PIZZA", "ABC START FOR LICENSE YEAR": null, "START DATE DATE": "12\/29\/2015", "ADDRESS": "801 A CAMPBELL LN", "CITY": "BOWLING GREEN", "ST": "KY", "ZIP": "42101", "COUNTRY": "UNITED STATES", "DAY PHONE": "901-299-9284", "DESCRIPTION '1": "RESTAURANT", "CUISINE": "PIZZA", "OWNERSHIP": "CORPORATE", "TYPE": "BRICK\/MORTAR", "result_num": "0", "score": "99.99", "address_match": "801 Campbell Ln, Bowling Green, Kentucky, 42104", "Loc_name": "World", "Addr_type": "PointAddress", "User_fld": "", "latlong": "36.960953984857056,-86.46266297738192" }, "geometry": { "type": "Point", "coordinates": [ -86.462662977381925, 36.960953984857056 ] } },
{ "type": "Feature", "properties": { "NAME": "LITTLE CAESARS PIZZA", "ABC START FOR LICENSE YEAR": null, "START DATE DATE": null, "ADDRESS": "430 US 31W BY PASS", "CITY": "BOWLING GREEN", "ST": "KY", "ZIP": "42101", "COUNTRY": "UNITED STATES", "DAY PHONE": "901-299-9284", "DESCRIPTION '1": "RESTAURANR", "CUISINE": "PIZZA", "OWNERSHIP": "CORPORATE", "TYPE": "BRICK\/MORTAR", "result_num": "0", "score": "98.5", "address_match": "430 US-31W, Bowling Green, Kentucky, 42101", "Loc_name": "World", "Addr_type": "StreetAddress", "User_fld": "", "latlong": "37.00264351839647,-86.43240392503363" }, "geometry": { "type": "Point", "coordinates": [ -86.432403925033626, 37.002643518396468 ] } },
{ "type": "Feature", "properties": { "NAME": "LONGHORN STEAKHOUSE OF BG", "ABC START FOR LICENSE YEAR": "2000", "START DATE DATE": "05\/01\/2000", "ADDRESS": "2635 SCOTTSVILLE RD", "CITY": "BOWLING GREEN", "ST": "KY", "ZIP": "42104", "COUNTRY": "UNITED STATES", "DAY PHONE": "770-399-9595", "DESCRIPTION '1": "RESTAURANT                   *", "CUISINE": "STEAKHOUSE", "OWNERSHIP": "CORPORATE", "TYPE": "BRICK\/MORTAR", "result_num": "0", "score": "100", "address_match": "2635 Scottsville Rd, Bowling Green, Kentucky, 42104", "Loc_name": "World", "Addr_type": "PointAddress", "User_fld": "", "latlong": "36.94818101215557,-86.4248630248126" }, "geometry": { "type": "Point", "coordinates": [ -86.424863024812595, 36.948181012155572 ] } },
{ "type": "Feature", "properties": { "NAME": "MARCO'S PIZZA", "ABC START FOR LICENSE YEAR": null, "START DATE DATE": "11\/20\/2016", "ADDRESS": "1870 WESTEN AVENUE", "CITY": "BOWLING GREEN", "ST": "KY", "ZIP": "42104", "COUNTRY": "UNITED STATES", "DAY PHONE": "270-936-7753", "DESCRIPTION '1": "PIZZA RESTAURANT", "CUISINE": "PIZZA", "OWNERSHIP": "CORPORATE", "TYPE": "BRICK\/MORTAR", "result_num": "0", "score": "100", "address_match": "1870 Westen Ave, Bowling Green, Kentucky, 42104", "Loc_name": "World", "Addr_type": "StreetAddress", "User_fld": "", "latlong": "36.960690351344944,-86.45120631596672" }, "geometry": { "type": "Point", "coordinates": [ -86.451206315966715, 36.960690351344944 ] } },
{ "type": "Feature", "properties": { "NAME": "MARIAH'S AND 6-4-3 SPORTS BAR", "ABC START FOR LICENSE YEAR": "2015", "START DATE DATE": "07\/10\/2015", "ADDRESS": "MARIAH'S RESTAURANT LLC", "CITY": "BOWLING GREEN", "ST": "KY", "ZIP": "42101", "COUNTRY": "UNITED STATES", "DAY PHONE": "000-000-0000", "DESCRIPTION '1": "RESTAURANT", "CUISINE": "AMERICAN", "OWNERSHIP": "CORPORATE", "TYPE": "BRICK\/MORTAR", "result_num": "0", "score": "96.09", "address_match": "Mariah's Restaurant", "Loc_name": "World", "Addr_type": "POI", "User_fld": "", "latlong": "36.99583300000006,-86.43974199999997" }, "geometry": { "type": "Point", "coordinates": [ -86.439742, 36.995833 ] } },
{ "type": "Feature", "properties": { "NAME": "MC DONALD'S", "ABC START FOR LICENSE YEAR": null, "START DATE DATE": "07\/01\/1988", "ADDRESS": "3080 SCOTTSVILLE RD", "CITY": "BOWLING GREEN", "ST": "KY", "ZIP": "42101", "COUNTRY": "UNITED STATES", "DAY PHONE": "-   -", "DESCRIPTION '1": "RESTAURANT", "CUISINE": "AMERICAN", "OWNERSHIP": "CORPORATE", "TYPE": "BRICK\/MORTAR", "result_num": "0", "score": "100", "address_match": "3080 Scottsville Rd, Bowling Green, Kentucky, 42104", "Loc_name": "World", "Addr_type": "PointAddress", "User_fld": "", "latlong": "36.94210501245321,-86.42077902630939" }, "geometry": { "type": "Point", "coordinates": [ -86.42077902630939, 36.942105012453212 ] } },
{ "type": "Feature", "properties": { "NAME": "MC DONALD'S", "ABC START FOR LICENSE YEAR": null, "START DATE DATE": "08\/30\/2012", "ADDRESS": "603 HENNESSY WAY", "CITY": "BOWLING GREEN", "ST": "KY", "ZIP": "42101", "COUNTRY": "UNITED STATES", "DAY PHONE": "270-904-0597", "DESCRIPTION '1": "RESTAURANT", "CUISINE": "AMERICAN", "OWNERSHIP": "CORPORATE", "TYPE": "BRICK\/MORTAR", "result_num": "0", "score": "100", "address_match": "603 Hennessy Way, Bowling Green, Kentucky, 42101", "Loc_name": "World", "Addr_type": "PointAddress", "User_fld": "", "latlong": "37.00731600961058,-86.37566703668594" }, "geometry": { "type": "Point", "coordinates": [ -86.37566703668594, 37.007316009610577 ] } },
{ "type": "Feature", "properties": { "NAME": "MC DONALD'S  #28105", "ABC START FOR LICENSE YEAR": null, "START DATE DATE": "02\/01\/2003", "ADDRESS": "2420 NASHVILLE RD", "CITY": "BOWLING GREEN", "ST": "KY", "ZIP": "42101", "COUNTRY": "UNITED STATES", "DAY PHONE": "270-782-4788", "DESCRIPTION '1": "RESTAURANT                   *", "CUISINE": "AMERICAN", "OWNERSHIP": "CORPORATE", "TYPE": "BRICK\/MORTAR", "result_num": "0", "score": "100", "address_match": "2420 Nashville Rd, Bowling Green, Kentucky, 42101", "Loc_name": "World", "Addr_type": "PointAddress", "User_fld": "", "latlong": "36.96062000792503,-86.46840902346578" }, "geometry": { "type": "Point", "coordinates": [ -86.468409023465782, 36.96062000792503 ] } },
{ "type": "Feature", "properties": { "NAME": "MC DONALDS", "ABC START FOR LICENSE YEAR": null, "START DATE DATE": "07\/01\/1988", "ADDRESS": "1423 US 31W BYPASS", "CITY": "BOWLING GREEN", "ST": "KY", "ZIP": "42101", "COUNTRY": "UNITED STATES", "DAY PHONE": "270-842-4181", "DESCRIPTION '1": "RESTAURANT", "CUISINE": "AMERICAN", "OWNERSHIP": "CORPORATE", "TYPE": "BRICK\/MORTAR", "result_num": "0", "score": "100", "address_match": "1423 Us 31w Byp, Bowling Green, Kentucky, 42101", "Loc_name": "World", "Addr_type": "PointAddress", "User_fld": "", "latlong": "36.9814290045674,-86.44465697298044" }, "geometry": { "type": "Point", "coordinates": [ -86.444656972980439, 36.981429004567403 ] } },
{ "type": "Feature", "properties": { "NAME": "MC DONALDS #11726", "ABC START FOR LICENSE YEAR": null, "START DATE DATE": "12\/12\/1990", "ADDRESS": "1925 RUSSELLVILLE RD", "CITY": "BOWLING GREEN", "ST": "KY", "ZIP": "42101", "COUNTRY": "UNITED STATES", "DAY PHONE": "270-781-7984", "DESCRIPTION '1": "RESTAURANT", "CUISINE": "AMERICAN", "OWNERSHIP": "CORPORATE", "TYPE": "BRICK\/MORTAR", "result_num": "0", "score": "100", "address_match": "1925 Russellville Rd, Bowling Green, Kentucky, 42101", "Loc_name": "World", "Addr_type": "PointAddress", "User_fld": "", "latlong": "36.9785460070607,-86.46929901394495" }, "geometry": { "type": "Point", "coordinates": [ -86.469299013944948, 36.9785460070607 ] } },
{ "type": "Feature", "properties": { "NAME": "MC DONALDS #16833", "ABC START FOR LICENSE YEAR": null, "START DATE DATE": "09\/18\/1995", "ADDRESS": "CAMPBELL ENTERPRISES LLC", "CITY": "BOWLING GREEN", "ST": "KY", "ZIP": "42101", "COUNTRY": "UNITED STATES", "DAY PHONE": "270-793-0810", "DESCRIPTION '1": "FAST FOOD SERVICE", "CUISINE": "AMERICAN", "OWNERSHIP": "CORPORATE", "TYPE": "BRICK\/MORTAR", "result_num": "0", "score": "83.54", "address_match": "Enterprise Ct, Bowling Green, Kentucky, 42101", "Loc_name": "World", "Addr_type": "StreetName", "User_fld": "", "latlong": "36.965583101197275,-86.48208005455098" }, "geometry": { "type": "Point", "coordinates": [ -86.482080054550977, 36.965583101197275 ] } },
{ "type": "Feature", "properties": { "NAME": "MELLOW MUSHROOM BOWLING GREEN", "ABC START FOR LICENSE YEAR": "2011", "START DATE DATE": "01\/01\/2012", "ADDRESS": "1035 CHESTNUT ST", "CITY": "BOWLING GREEN", "ST": "KY", "ZIP": "42101", "COUNTRY": "UNITED STATES", "DAY PHONE": "270-393-1800", "DESCRIPTION '1": "RESTAURANT", "CUISINE": "PIZZA", "OWNERSHIP": "CORPORATE", "TYPE": "BRICK\/MORTAR", "result_num": "0", "score": "100", "address_match": "1035 Chestnut St, Bowling Green, Kentucky, 42101", "Loc_name": "World", "Addr_type": "PointAddress", "User_fld": "", "latlong": "36.9903629817955,-86.44235899040585" }, "geometry": { "type": "Point", "coordinates": [ -86.44235899040585, 36.990362981795499 ] } },
{ "type": "Feature", "properties": { "NAME": "MOE'S SOUTHWEST GRILL", "ABC START FOR LICENSE YEAR": "2008", "START DATE DATE": "09\/10\/2006", "ADDRESS": "2020 SCOTTSVILLE RD STE 107", "CITY": "BOWLING GREEN", "ST": "KY", "ZIP": "42104", "COUNTRY": "UNITED STATES", "DAY PHONE": "270-782-9898", "DESCRIPTION '1": "RESTAURANT", "CUISINE": "TEX-MEX", "OWNERSHIP": "CORPORATE", "TYPE": "BRICK\/MORTAR", "result_num": "0", "score": "100", "address_match": "2020 Scottsville Rd, Ste 107, Bowling Green, Kentucky, 42104", "Loc_name": "World", "Addr_type": "Subaddress", "User_fld": "", "latlong": "36.959118012785495,-86.42792401203323" }, "geometry": { "type": "Point", "coordinates": [ -86.42792401203323, 36.959118012785495 ] } },
{ "type": "Feature", "properties": { "NAME": "BLAZE PIZZA", "ABC START FOR LICENSE YEAR": "2016", "START DATE DATE": "05\/01\/2016", "ADDRESS": "2825 SCOTTSVILLE ROAD", "CITY": "BOWLING GREEN", "ST": "KY", "ZIP": "42104", "COUNTRY": "UNITED STATES", "DAY PHONE": "502-749-5550", "DESCRIPTION '1": "PIZZA RESTARUANT**", "CUISINE": "PIZZA", "OWNERSHIP": "CORPORATE", "TYPE": "BRICK\/MORTAR", "result_num": "0", "score": "100", "address_match": "2825 Scottsville Rd, Bowling Green, Kentucky, 42104", "Loc_name": "World", "Addr_type": "PointAddress", "User_fld": "", "latlong": "36.94608398570962,-86.42403003127502" }, "geometry": { "type": "Point", "coordinates": [ -86.424030031275024, 36.94608398570962 ] } },
{ "type": "Feature", "properties": { "NAME": "O'CHARLEY'S RESTAURANT", "ABC START FOR LICENSE YEAR": null, "START DATE DATE": "08\/15\/1986", "ADDRESS": "1720 31W BYPASS", "CITY": "BOWLING GREEN", "ST": "KY", "ZIP": "42104", "COUNTRY": "UNITED STATES", "DAY PHONE": "270-781-0806", "DESCRIPTION '1": "RESTAURANT", "CUISINE": "AMERICAN", "OWNERSHIP": "CORPORATE", "TYPE": "BRICK\/MORTAR", "result_num": "0", "score": "93.88", "address_match": "1720 US 31W-Byp, Bowling Green, Kentucky, 42101", "Loc_name": "World", "Addr_type": "StreetAddress", "User_fld": "", "latlong": "36.97915200561855,-86.45179182016858" }, "geometry": { "type": "Point", "coordinates": [ -86.45179182016858, 36.979152005618552 ] } },
{ "type": "Feature", "properties": { "NAME": "OLIVE GARDEN ITALIAN REST 1842", "ABC START FOR LICENSE YEAR": "2010", "START DATE DATE": "04\/12\/2010", "ADDRESS": "3220 SCOTTSVILLE RD", "CITY": "BOWLING GREEN", "ST": "KY", "ZIP": "42104", "COUNTRY": "UNITED STATES", "DAY PHONE": "270-782-6050", "DESCRIPTION '1": "RESTAURANT", "CUISINE": "ITALIAN-AMERICAN", "OWNERSHIP": "CORPORATE", "TYPE": "BRICK\/MORTAR", "result_num": "0", "score": "100", "address_match": "3220 Scottsville Rd, Bowling Green, Kentucky, 42104", "Loc_name": "World", "Addr_type": "PointAddress", "User_fld": "", "latlong": "36.93985300461755,-86.41987503805191" }, "geometry": { "type": "Point", "coordinates": [ -86.419875038051913, 36.939853004617547 ] } },
{ "type": "Feature", "properties": { "NAME": "OUTBACK STEAKHOUSE", "ABC START FOR LICENSE YEAR": "2011", "START DATE DATE": "04\/15\/2011", "ADDRESS": "3260 SCOTTSVILLE RD", "CITY": "BOWLING GREEN", "ST": "KY", "ZIP": "42101", "COUNTRY": "UNITED STATES", "DAY PHONE": "270-746-0409", "DESCRIPTION '1": "RESTAURANT", "CUISINE": "STEAKHOUSE", "OWNERSHIP": "CORPORATE", "TYPE": "BRICK\/MORTAR", "result_num": "0", "score": "100", "address_match": "3260 Scottsville Rd, Bowling Green, Kentucky, 42104", "Loc_name": "World", "Addr_type": "PointAddress", "User_fld": "", "latlong": "36.937993982312264,-86.41879896932225" }, "geometry": { "type": "Point", "coordinates": [ -86.418798969322253, 36.937993982312264 ] } },
{ "type": "Feature", "properties": { "NAME": "PANERA BREAD #1064", "ABC START FOR LICENSE YEAR": null, "START DATE DATE": "10\/23\/2006", "ADDRESS": "1770 C CAMPBELL LN", "CITY": "BOWLING GREEN", "ST": "KY", "ZIP": "42101", "COUNTRY": "UNITED STATES", "DAY PHONE": "000-000-0000", "DESCRIPTION '1": "RESTAURANT", "CUISINE": "AMERICAN", "OWNERSHIP": "CORPORATE", "TYPE": "BRICK\/MORTAR", "result_num": "0", "score": "98.76", "address_match": "1770 Campbell Ln, Bowling Green, Kentucky, 42104", "Loc_name": "World", "Addr_type": "PointAddress", "User_fld": "", "latlong": "36.953726018291775,-86.43227698580934" }, "geometry": { "type": "Point", "coordinates": [ -86.432276985809338, 36.953726018291775 ] } },
{ "type": "Feature", "properties": { "NAME": "PAPA JOHN'S", "ABC START FOR LICENSE YEAR": null, "START DATE DATE": "08\/21\/1989", "ADDRESS": "1922 RUSSELLVILLE RD", "CITY": "BOWLING GREEN", "ST": "KY", "ZIP": "42101", "COUNTRY": "UNITED STATES", "DAY PHONE": "270-782-0888", "DESCRIPTION '1": "RESTAURANT", "CUISINE": "PIZZA", "OWNERSHIP": "CORPORATE", "TYPE": "BRICK\/MORTAR", "result_num": "0", "score": "100", "address_match": "1922 Russellville Rd, Bowling Green, Kentucky, 42101", "Loc_name": "World", "Addr_type": "StreetAddress", "User_fld": "", "latlong": "36.97869795664431,-86.46848110438735" }, "geometry": { "type": "Point", "coordinates": [ -86.468481104387351, 36.978697956644311 ] } },
{ "type": "Feature", "properties": { "NAME": "PAPA JOHNS", "ABC START FOR LICENSE YEAR": null, "START DATE DATE": "11\/21\/1989", "ADDRESS": "390 US 31W BYPASS", "CITY": "BOWLING GREEN", "ST": "KY", "ZIP": "42101", "COUNTRY": "UNITED STATES", "DAY PHONE": "270-782-9911", "DESCRIPTION '1": "RESTAURANT", "CUISINE": "PIZZA", "OWNERSHIP": "CORPORATE", "TYPE": "BRICK\/MORTAR", "result_num": "0", "score": "100", "address_match": "390 Us 31w Byp, Bowling Green, Kentucky, 42101", "Loc_name": "World", "Addr_type": "PointAddress", "User_fld": "", "latlong": "36.99567199544779,-86.42565000170174" }, "geometry": { "type": "Point", "coordinates": [ -86.42565000170174, 36.995671995447793 ] } },
{ "type": "Feature", "properties": { "NAME": "PIZZA HUT", "ABC START FOR LICENSE YEAR": null, "START DATE DATE": "12\/21\/2000", "ADDRESS": "1200 SMALLHOUSE RD", "CITY": "BOWLING GREEN", "ST": "KY", "ZIP": "42101", "COUNTRY": "UNITED STATES", "DAY PHONE": "270-781-9898", "DESCRIPTION '1": "RESTAURANT", "CUISINE": "PIZZA", "OWNERSHIP": "CORPORATE", "TYPE": "BRICK\/MORTAR", "result_num": "0", "score": "100", "address_match": "1200 Smallhouse Rd, Bowling Green, Kentucky, 42104", "Loc_name": "World", "Addr_type": "PointAddress", "User_fld": "", "latlong": "36.97841399208569,-86.4386179793806" }, "geometry": { "type": "Point", "coordinates": [ -86.438617979380595, 36.978413992085692 ] } },
{ "type": "Feature", "properties": { "NAME": "PIZZA HUT", "ABC START FOR LICENSE YEAR": "2012", "START DATE DATE": "08\/20\/2012", "ADDRESS": "2450 NASHVILLE RD", "CITY": "BOWLING GREEN", "ST": "KY", "ZIP": "42102", "COUNTRY": "UNITED STATES", "DAY PHONE": "270-901-3637", "DESCRIPTION '1": "RESTAURANT", "CUISINE": "PIZZA", "OWNERSHIP": "CORPORATE", "TYPE": "BRICK\/MORTAR", "result_num": "0", "score": "100", "address_match": "2450 Nashville Rd, Bowling Green, Kentucky, 42101", "Loc_name": "World", "Addr_type": "StreetAddress", "User_fld": "", "latlong": "36.959596643817186,-86.46998470577662" }, "geometry": { "type": "Point", "coordinates": [ -86.469984705776625, 36.959596643817186 ] } },
{ "type": "Feature", "properties": { "NAME": "PIZZA HUT #2665", "ABC START FOR LICENSE YEAR": "2001", "START DATE DATE": "12\/21\/2000", "ADDRESS": "2631 SCOTTSVILLE RD", "CITY": "BOWLING GREEN", "ST": "KY", "ZIP": "42101", "COUNTRY": "UNITED STATES", "DAY PHONE": "000-000-0000", "DESCRIPTION '1": "RESTAURANT", "CUISINE": "PIZZA", "OWNERSHIP": "CORPORATE", "TYPE": "BRICK\/MORTAR", "result_num": "0", "score": "100", "address_match": "2631 Scottsville Rd, Bowling Green, Kentucky, 42104", "Loc_name": "World", "Addr_type": "PointAddress", "User_fld": "", "latlong": "36.94887599765737,-86.42518597954194" }, "geometry": { "type": "Point", "coordinates": [ -86.425185979541936, 36.948875997657368 ] } },
{ "type": "Feature", "properties": { "NAME": "QDOBA MEXICAN GRILL", "ABC START FOR LICENSE YEAR": "2014", "START DATE DATE": "12\/16\/2013", "ADDRESS": "1971 CAVE MILL RD STE 6", "CITY": "BOWLING GREEN", "ST": "KY", "ZIP": "42104", "COUNTRY": "UNITED STATES", "DAY PHONE": "270-535-7512", "DESCRIPTION '1": "MEXICAN RESTAURANT", "CUISINE": "MEXICAN", "OWNERSHIP": "CORPORATE", "TYPE": "BRICK\/MORTAR", "result_num": "0", "score": "100", "address_match": "1971 Cave Mill Rd, Ste 6, Bowling Green, Kentucky, 42104", "Loc_name": "World", "Addr_type": "Subaddress", "User_fld": "", "latlong": "36.94492300830079,-86.42424703874823" }, "geometry": { "type": "Point", "coordinates": [ -86.424247038748234, 36.94492300830079 ] } },
{ "type": "Feature", "properties": { "NAME": "QUIZNOS", "ABC START FOR LICENSE YEAR": null, "START DATE DATE": "06\/07\/2010", "ADDRESS": "760 CAMPBELL LN", "CITY": "BOWLING GREEN", "ST": "KY", "ZIP": "42101", "COUNTRY": "UNITED STATES", "DAY PHONE": "270-590-5719", "DESCRIPTION '1": "RESTAURANT", "CUISINE": "SANDWICH SHOP", "OWNERSHIP": "CORPORATE", "TYPE": "BRICK\/MORTAR", "result_num": "0", "score": "100", "address_match": "760 Campbell Ln, Bowling Green, Kentucky, 42104", "Loc_name": "World", "Addr_type": "PointAddress", "User_fld": "", "latlong": "36.96235799554846,-86.4639589872509" }, "geometry": { "type": "Point", "coordinates": [ -86.463958987250905, 36.962357995548459 ] } },
{ "type": "Feature", "properties": { "NAME": "RALLY'S RESTAURANT #16", "ABC START FOR LICENSE YEAR": null, "START DATE DATE": "10\/09\/1991", "ADDRESS": "1901 RUSSELLVILLE RD", "CITY": "BOWLING GREEN", "ST": "KY", "ZIP": "42101", "COUNTRY": "UNITED STATES", "DAY PHONE": "000-000-0000", "DESCRIPTION '1": "RESTAURANT", "CUISINE": "AMERICAN", "OWNERSHIP": "CORPORATE", "TYPE": "BRICK\/MORTAR", "result_num": "0", "score": "100", "address_match": "1901 Russellville Rd, Bowling Green, Kentucky, 42101", "Loc_name": "World", "Addr_type": "PointAddress", "User_fld": "", "latlong": "36.97922498312742,-86.46966899115111" }, "geometry": { "type": "Point", "coordinates": [ -86.46966899115111, 36.979224983127423 ] } },
{ "type": "Feature", "properties": { "NAME": "RED LOBSTER RESTAURANTS LLC", "ABC START FOR LICENSE YEAR": "2014", "START DATE DATE": "07\/28\/2014", "ADDRESS": "2525 SCOTTSVILLE RD", "CITY": "BOWLING GREEN", "ST": "KY", "ZIP": "42104", "COUNTRY": "UNITED STATES", "DAY PHONE": "270-782-9500", "DESCRIPTION '1": "RESTAURANT", "CUISINE": "SEAFOOD", "OWNERSHIP": "CORPORATE", "TYPE": "BRICK\/MORTAR", "result_num": "0", "score": "100", "address_match": "2525 Scottsville Rd, Bowling Green, Kentucky, 42104", "Loc_name": "World", "Addr_type": "PointAddress", "User_fld": "", "latlong": "36.95125000409375,-86.42625500747295" }, "geometry": { "type": "Point", "coordinates": [ -86.426255007472946, 36.951250004093751 ] } },
{ "type": "Feature", "properties": { "NAME": "RUBY TUESDAY", "ABC START FOR LICENSE YEAR": "2003", "START DATE DATE": "01\/01\/2004", "ADDRESS": "2945 SCOTTSVILLE RD", "CITY": "BOWLING GREEN", "ST": "KY", "ZIP": "42101", "COUNTRY": "UNITED STATES", "DAY PHONE": "000-000-0000", "DESCRIPTION '1": "RESTAURANT", "CUISINE": "AMERICAN", "OWNERSHIP": "CORPORATE", "TYPE": "BRICK\/MORTAR", "result_num": "0", "score": "100", "address_match": "2945 Scottsville Rd, Bowling Green, Kentucky, 42104", "Loc_name": "World", "Addr_type": "PointAddress", "User_fld": "", "latlong": "36.943578006207744,-86.42563298643829" }, "geometry": { "type": "Point", "coordinates": [ -86.425632986438288, 36.943578006207744 ] } },
{ "type": "Feature", "properties": { "NAME": "SALADWORKS", "ABC START FOR LICENSE YEAR": null, "START DATE DATE": "06\/01\/2014", "ADDRESS": "2300 GARY FARMS BLVD STE 700", "CITY": "BOWLING GREEN", "ST": "KY", "ZIP": "42104", "COUNTRY": "UNITED STATES", "DAY PHONE": "270-599-1160", "DESCRIPTION '1": "RESTAURANT", "CUISINE": "AMERICAN", "OWNERSHIP": "CORPORATE", "TYPE": "BRICK\/MORTAR", "result_num": "0", "score": "100", "address_match": "2300 Gary Farms Blvd, Ste 700, Bowling Green, Kentucky, 42104", "Loc_name": "World", "Addr_type": "Subaddress", "User_fld": "", "latlong": "36.95545101396527,-86.43146000170682" }, "geometry": { "type": "Point", "coordinates": [ -86.431460001706824, 36.955451013965273 ] } },
{ "type": "Feature", "properties": { "NAME": "SBARRO'S PIZZA", "ABC START FOR LICENSE YEAR": null, "START DATE DATE": "11\/17\/2011", "ADDRESS": "2625 SCOTTSVILLE RD", "CITY": "BOWLING GREEN", "ST": "KY", "ZIP": "42101", "COUNTRY": "UNITED STATES", "DAY PHONE": "270-842-9046", "DESCRIPTION '1": "RESTAURANT", "CUISINE": "PIZZA", "OWNERSHIP": "CORPORATE", "TYPE": "BRICK\/MORTAR", "result_num": "0", "score": "100", "address_match": "2625 Scottsville Rd, Bowling Green, Kentucky, 42104", "Loc_name": "World", "Addr_type": "PointAddress", "User_fld": "", "latlong": "36.94865999601254,-86.42798000314644" }, "geometry": { "type": "Point", "coordinates": [ -86.427980003146445, 36.948659996012537 ] } },
{ "type": "Feature", "properties": { "NAME": "SMOKEY BONES BAR & FIRE GRILL", "ABC START FOR LICENSE YEAR": "2008", "START DATE DATE": "01\/01\/2008", "ADDRESS": "2450 SCOTTSVILLE RD", "CITY": "BOWLING GREEN", "ST": "KY", "ZIP": "42104", "COUNTRY": "UNITED STATES", "DAY PHONE": "270-782-1888", "DESCRIPTION '1": "RESTAURANT & BAR", "CUISINE": "BBQ", "OWNERSHIP": "CORPORATE", "TYPE": "BRICK\/MORTAR", "result_num": "0", "score": "100", "address_match": "2450 Scottsville Rd, Bowling Green, Kentucky, 42104", "Loc_name": "World", "Addr_type": "PointAddress", "User_fld": "", "latlong": "36.95340201582452,-86.42548102253372" }, "geometry": { "type": "Point", "coordinates": [ -86.425481022533717, 36.953402015824523 ] } },
{ "type": "Feature", "properties": { "NAME": "SMOOTHIE KING #1319", "ABC START FOR LICENSE YEAR": null, "START DATE DATE": "06\/30\/2015", "ADDRESS": "2435 NASHVILLE RD STE #110", "CITY": "BOWLING GREEN", "ST": "KY", "ZIP": "42101", "COUNTRY": "UNITED STATES", "DAY PHONE": "270-392-7566", "DESCRIPTION '1": "SMOOTHIE BAR                 *", "CUISINE": "SMOOTHIE BAR", "OWNERSHIP": "CORPORATE", "TYPE": "BRICK\/MORTAR", "result_num": "0", "score": "100", "address_match": "2435 Nashville Rd, Ste 110, Bowling Green, Kentucky, 42101", "Loc_name": "World", "Addr_type": "Subaddress", "User_fld": "", "latlong": "36.96080801401325,-86.46984802860294" }, "geometry": { "type": "Point", "coordinates": [ -86.469848028602939, 36.960808014013253 ] } },
{ "type": "Feature", "properties": { "NAME": "SMOOTHIE KING #1482", "ABC START FOR LICENSE YEAR": null, "START DATE DATE": "02\/01\/2017", "ADDRESS": "2708 C SCOTTSVILLE ROAD", "CITY": "BOWLING GREEN", "ST": "KY", "ZIP": "42104", "COUNTRY": "UNITED STATES", "DAY PHONE": "270-392-7566", "DESCRIPTION '1": "SMOOTHIE BAR                 *", "CUISINE": "SMOOTHIE BAR", "OWNERSHIP": "CORPORATE", "TYPE": "BRICK\/MORTAR", "result_num": "0", "score": "98.78", "address_match": "2708 Scottsville Rd, Bowling Green, Kentucky, 42104", "Loc_name": "World", "Addr_type": "PointAddress", "User_fld": "", "latlong": "36.948438001306926,-86.42343600579697" }, "geometry": { "type": "Point", "coordinates": [ -86.423436005796972, 36.948438001306926 ] } },
{ "type": "Feature", "properties": { "NAME": "SONIC DRIVE IN NASHVILLE HWY", "ABC START FOR LICENSE YEAR": null, "START DATE DATE": "06\/01\/2006", "ADDRESS": "3016 NASHVILLE RD", "CITY": "BOWLING GREEN", "ST": "KY", "ZIP": "42101", "COUNTRY": "UNITED STATES", "DAY PHONE": "270-842-3225", "DESCRIPTION '1": "RESTAURANT", "CUISINE": "AMERICAN", "OWNERSHIP": "CORPORATE", "TYPE": "BRICK\/MORTAR", "result_num": "0", "score": "100", "address_match": "3016 Nashville Rd, Bowling Green, Kentucky, 42101", "Loc_name": "World", "Addr_type": "PointAddress", "User_fld": "", "latlong": "36.951199000212924,-86.47513801533502" }, "geometry": { "type": "Point", "coordinates": [ -86.47513801533502, 36.951199000212924 ] } },
{ "type": "Feature", "properties": { "NAME": "STARBUCKS COFFEE CO", "ABC START FOR LICENSE YEAR": null, "START DATE DATE": "03\/29\/2003", "ADDRESS": "2808 SCOTTSVILLE RD", "CITY": "BOWLING GREEN", "ST": "KY", "ZIP": "42101", "COUNTRY": "UNITED STATES", "DAY PHONE": "000-000-0000", "DESCRIPTION '1": "COFFEE SHOP", "CUISINE": "COFFEE SHOP ", "OWNERSHIP": "CORPORATE", "TYPE": "BRICK\/MORTAR", "result_num": "0", "score": "100", "address_match": "2808 Scottsville Rd, Bowling Green, Kentucky, 42104", "Loc_name": "World", "Addr_type": "PointAddress", "User_fld": "", "latlong": "36.94671300563343,-86.42282102556099" }, "geometry": { "type": "Point", "coordinates": [ -86.422821025560992, 36.946713005633427 ] } },
{ "type": "Feature", "properties": { "NAME": "STARBUCKS COFFEE CO", "ABC START FOR LICENSE YEAR": null, "START DATE DATE": "03\/29\/2003", "ADDRESS": "710 CAMPBELL LN", "CITY": "BOWLING GREEN", "ST": "KY", "ZIP": "42104", "COUNTRY": "UNITED STATES", "DAY PHONE": "000-000-0000", "DESCRIPTION '1": "COFFEE SHOP", "CUISINE": "COFFE SHOP", "OWNERSHIP": "CORPORATE", "TYPE": "BRICK\/MORTAR", "result_num": "0", "score": "100", "address_match": "710 Campbell Ln, Bowling Green, Kentucky, 42104", "Loc_name": "World", "Addr_type": "PointAddress", "User_fld": "", "latlong": "36.96231901969868,-86.46653700921057" }, "geometry": { "type": "Point", "coordinates": [ -86.466537009210569, 36.962319019698683 ] } },
{ "type": "Feature", "properties": { "NAME": "SUBWAY", "ABC START FOR LICENSE YEAR": null, "START DATE DATE": "01\/01\/2000", "ADDRESS": "2625 SCOTTSVILLE RD", "CITY": "BOWLING GREEN", "ST": "KY", "ZIP": "42101", "COUNTRY": "UNITED STATES", "DAY PHONE": "270-782-5354", "DESCRIPTION '1": "RETAIL FOOD", "CUISINE": "SANDWICH SHOP", "OWNERSHIP": "CORPORATE", "TYPE": "BRICK\/MORTAR", "result_num": "0", "score": "100", "address_match": "2625 Scottsville Rd, Bowling Green, Kentucky, 42104", "Loc_name": "World", "Addr_type": "PointAddress", "User_fld": "", "latlong": "36.94865999601254,-86.42798000314644" }, "geometry": { "type": "Point", "coordinates": [ -86.427980003146445, 36.948659996012537 ] } },
{ "type": "Feature", "properties": { "NAME": "SUBWAY", "ABC START FOR LICENSE YEAR": null, "START DATE DATE": "01\/01\/2000", "ADDRESS": "650 US 31W BYPASS", "CITY": "BOWLING GREEN", "ST": "KY", "ZIP": "42101", "COUNTRY": "UNITED STATES", "DAY PHONE": "270-842-1616", "DESCRIPTION '1": "RETAIL FOOD", "CUISINE": "SANDWICH SHOP", "OWNERSHIP": "CORPORATE", "TYPE": "BRICK\/MORTAR", "result_num": "0", "score": "100", "address_match": "650 Us 31w Byp, Bowling Green, Kentucky, 42101", "Loc_name": "World", "Addr_type": "PointAddress", "User_fld": "", "latlong": "36.98814198700158,-86.42905498222869" }, "geometry": { "type": "Point", "coordinates": [ -86.429054982228692, 36.988141987001583 ] } },
{ "type": "Feature", "properties": { "NAME": "SUBWAY", "ABC START FOR LICENSE YEAR": null, "START DATE DATE": "01\/01\/2000", "ADDRESS": "2625 SCOTTSVILLE RD UNIT 412", "CITY": "BOWLING GREEN", "ST": "KY", "ZIP": "42104", "COUNTRY": "UNITED STATES", "DAY PHONE": "270-782-5354", "DESCRIPTION '1": "RETAIL FOOD", "CUISINE": "SANDWICH SHOP", "OWNERSHIP": "CORPORATE", "TYPE": "BRICK\/MORTAR", "result_num": "0", "score": "100", "address_match": "2625 Scottsville Rd, Ste 412, Bowling Green, Kentucky, 42104", "Loc_name": "World", "Addr_type": "Subaddress", "User_fld": "", "latlong": "36.95116098828203,-86.43248200716101" }, "geometry": { "type": "Point", "coordinates": [ -86.432482007161013, 36.951160988282027 ] } },
{ "type": "Feature", "properties": { "NAME": "SUBWAY", "ABC START FOR LICENSE YEAR": null, "START DATE DATE": "01\/01\/2000", "ADDRESS": "401 PARK ROW", "CITY": "BOWLING GREEN", "ST": "KY", "ZIP": "42101", "COUNTRY": "UNITED STATES", "DAY PHONE": "270-783-4144", "DESCRIPTION '1": "RETAIL FOOD", "CUISINE": "SANDWICH SHOP", "OWNERSHIP": "CORPORATE", "TYPE": "BRICK\/MORTAR", "result_num": "0", "score": "100", "address_match": "401 Park Row, Bowling Green, Kentucky, 42101", "Loc_name": "World", "Addr_type": "PointAddress", "User_fld": "", "latlong": "36.99308999208412,-86.44252201842262" }, "geometry": { "type": "Point", "coordinates": [ -86.442522018422622, 36.993089992084123 ] } },
{ "type": "Feature", "properties": { "NAME": "SUBWAY # 14234", "ABC START FOR LICENSE YEAR": null, "START DATE DATE": "06\/01\/2018", "ADDRESS": "2625 SCOTTSVILLE RD", "CITY": "BOWLING GREEN", "ST": "KY", "ZIP": "42101", "COUNTRY": "UNITED STATES", "DAY PHONE": "270-901-9236", "DESCRIPTION '1": "RESTAURANT", "CUISINE": "SANDWICH SHOP", "OWNERSHIP": "CORPORATE", "TYPE": "BRICK\/MORTAR", "result_num": "0", "score": "100", "address_match": "2625 Scottsville Rd, Bowling Green, Kentucky, 42104", "Loc_name": "World", "Addr_type": "PointAddress", "User_fld": "", "latlong": "36.94865999601254,-86.42798000314644" }, "geometry": { "type": "Point", "coordinates": [ -86.427980003146445, 36.948659996012537 ] } },
{ "type": "Feature", "properties": { "NAME": "SUBWAY 214", "ABC START FOR LICENSE YEAR": null, "START DATE DATE": "03\/31\/2007", "ADDRESS": "3521 DAHLIA CT", "CITY": "BOWLING GREEN", "ST": "KY", "ZIP": "42101", "COUNTRY": "UNITED STATES", "DAY PHONE": "000-000-0000", "DESCRIPTION '1": "RESTAURANT", "CUISINE": "SANDWICH SHOP", "OWNERSHIP": "CORPORATE", "TYPE": "BRICK\/MORTAR", "result_num": "0", "score": "100", "address_match": "3521 Dahlia Ct, Bowling Green, Kentucky, 42101", "Loc_name": "World", "Addr_type": "StreetAddress", "User_fld": "", "latlong": "37.01087465370162,-86.38980593403498" }, "geometry": { "type": "Point", "coordinates": [ -86.389805934034982, 37.01087465370162 ] } },
{ "type": "Feature", "properties": { "NAME": "SUBWAY 32904", "ABC START FOR LICENSE YEAR": null, "START DATE DATE": "02\/08\/2012", "ADDRESS": "2738 SCOTTSVILLE RD", "CITY": "BOWLING GREEN", "ST": "KY", "ZIP": "42104", "COUNTRY": "UNITED STATES", "DAY PHONE": "270-781-1212", "DESCRIPTION '1": "RESTAURANT", "CUISINE": "SANDWICH SHOP", "OWNERSHIP": "CORPORATE", "TYPE": "BRICK\/MORTAR", "result_num": "0", "score": "100", "address_match": "2738 Scottsville Rd, Bowling Green, Kentucky, 42104", "Loc_name": "World", "Addr_type": "StreetAddress", "User_fld": "", "latlong": "36.9483124794676,-86.42376125232272" }, "geometry": { "type": "Point", "coordinates": [ -86.42376125232272, 36.948312479467603 ] } },
{ "type": "Feature", "properties": { "NAME": "SUBWAY RESTAURANT", "ABC START FOR LICENSE YEAR": null, "START DATE DATE": "04\/21\/2015", "ADDRESS": "250 PARK ST", "CITY": "BOWLING GREEN", "ST": "KY", "ZIP": "42101", "COUNTRY": "UNITED STATES", "DAY PHONE": "731-336-4864", "DESCRIPTION '1": "FRANCHISED SUBWAY RESTAURANT", "CUISINE": "SANDWICH SHOP", "OWNERSHIP": "CORPORATE", "TYPE": "BRICK\/MORTAR", "result_num": "0", "score": "100", "address_match": "250 Park St, Bowling Green, Kentucky, 42101", "Loc_name": "World", "Addr_type": "PointAddress", "User_fld": "", "latlong": "36.99593099625592,-86.43032098488432" }, "geometry": { "type": "Point", "coordinates": [ -86.430320984884318, 36.995930996255922 ] } },
{ "type": "Feature", "properties": { "NAME": "SUMMER SONG", "ABC START FOR LICENSE YEAR": null, "START DATE DATE": "01\/01\/2003", "ADDRESS": "CITYWIDE DELIVERIES", "CITY": "BOWLING GREEN", "ST": "KY", "ZIP": "42101", "COUNTRY": "UNITED STATES", "DAY PHONE": "219-924-6710", "DESCRIPTION '1": "ICE CREAM DELIVERY", "CUISINE": "ICE CREAM", "OWNERSHIP": "CORPORATE", "TYPE": "FOOD TRUCK", "result_num": "0", "score": "83.64", "address_match": "Bowling Green, Kentucky", "Loc_name": "World", "Addr_type": "Locality", "User_fld": "", "latlong": "36.994620000000054,-86.44557999999995" }, "geometry": { "type": "Point", "coordinates": [ -86.44558, 36.99462 ] } },
{ "type": "Feature", "properties": { "NAME": "SWEET CHARLIES", "ABC START FOR LICENSE YEAR": null, "START DATE DATE": "05\/01\/2018", "ADDRESS": "760 CAMPBELL LN STE 108", "CITY": "BOWLING GREEN", "ST": "KY", "ZIP": "42101", "COUNTRY": "UNITED STATES", "DAY PHONE": "270-904-3113", "DESCRIPTION '1": "ICE CREAM", "CUISINE": "ICE CREAM", "OWNERSHIP": "CORPORATE", "TYPE": "BRICK\/MORTAR", "result_num": "0", "score": "100", "address_match": "760 Campbell Ln, Ste 108, Bowling Green, Kentucky, 42104", "Loc_name": "World", "Addr_type": "Subaddress", "User_fld": "", "latlong": "36.96235799554846,-86.4639589872509" }, "geometry": { "type": "Point", "coordinates": [ -86.463958987250905, 36.962357995548459 ] } },
{ "type": "Feature", "properties": { "NAME": "TACO BELL", "ABC START FOR LICENSE YEAR": null, "START DATE DATE": "03\/15\/2006", "ADDRESS": "2628 SCOTTSVILLE RD", "CITY": "BOWLING GREEN", "ST": "KY", "ZIP": "42101", "COUNTRY": "UNITED STATES", "DAY PHONE": "000-000-0000", "DESCRIPTION '1": "RESTAURANT", "CUISINE": "TEX-MEX", "OWNERSHIP": "CORPORATE", "TYPE": "BRICK\/MORTAR", "result_num": "0", "score": "100", "address_match": "2628 Scottsville Rd, Bowling Green, Kentucky, 42104", "Loc_name": "World", "Addr_type": "PointAddress", "User_fld": "", "latlong": "36.94973199951916,-86.42413799018792" }, "geometry": { "type": "Point", "coordinates": [ -86.424137990187916, 36.949731999519159 ] } },
{ "type": "Feature", "properties": { "NAME": "TACO BELL", "ABC START FOR LICENSE YEAR": null, "START DATE DATE": "03\/15\/2006", "ADDRESS": "1162 31 W BYPASS", "CITY": "BOWLING GREEN", "ST": "KY", "ZIP": "42101", "COUNTRY": "UNITED STATES", "DAY PHONE": "316-722-5670", "DESCRIPTION '1": "RESTAURANT", "CUISINE": "TEX-MEX", "OWNERSHIP": "CORPORATE", "TYPE": "BRICK\/MORTAR", "result_num": "0", "score": "92.88", "address_match": "1162 US 31W-Byp, Bowling Green, Kentucky, 42101", "Loc_name": "World", "Addr_type": "StreetAddress", "User_fld": "", "latlong": "36.98296083386096,-86.43889162692945" }, "geometry": { "type": "Point", "coordinates": [ -86.438891626929447, 36.982960833860957 ] } },
{ "type": "Feature", "properties": { "NAME": "TACO BELL", "ABC START FOR LICENSE YEAR": null, "START DATE DATE": "12\/06\/2011", "ADDRESS": "1801 RUSSELLVILLE RD", "CITY": "BOWLING GREEN", "ST": "KY", "ZIP": "42101", "COUNTRY": "UNITED STATES", "DAY PHONE": "270-846-9976", "DESCRIPTION '1": "RESTAURANT", "CUISINE": "TEX-MEX", "OWNERSHIP": "CORPORATE", "TYPE": "BRICK\/MORTAR", "result_num": "0", "score": "100", "address_match": "1801 Russellville Rd, Bowling Green, Kentucky, 42101", "Loc_name": "World", "Addr_type": "PointAddress", "User_fld": "", "latlong": "36.98117000375929,-86.46780896301745" }, "geometry": { "type": "Point", "coordinates": [ -86.467808963017447, 36.981170003759289 ] } },
{ "type": "Feature", "properties": { "NAME": "TROPICAL SMOOTHIE CAFE", "ABC START FOR LICENSE YEAR": null, "START DATE DATE": "11\/01\/2017", "ADDRESS": "1971 CAVE MILL ROAD STE 1", "CITY": "BOWLING GREEN", "ST": "KY", "ZIP": "42101", "COUNTRY": "UNITED STATES", "DAY PHONE": "270-590-0022", "DESCRIPTION '1": "CAFE", "CUISINE": "SMOOTHIE BAR", "OWNERSHIP": "CORPORATE", "TYPE": "BRICK\/MORTAR", "result_num": "0", "score": "100", "address_match": "1971 Cave Mill Rd, Ste 1, Bowling Green, Kentucky, 42104", "Loc_name": "World", "Addr_type": "Subaddress", "User_fld": "", "latlong": "36.94492300830079,-86.42424703874823" }, "geometry": { "type": "Point", "coordinates": [ -86.424247038748234, 36.94492300830079 ] } },
{ "type": "Feature", "properties": { "NAME": "WAFFLE HOUSE", "ABC START FOR LICENSE YEAR": null, "START DATE DATE": "04\/29\/2009", "ADDRESS": "1868 RUSSELLVILLE RD", "CITY": "BOWLING GREEN", "ST": "KY", "ZIP": "42101", "COUNTRY": "UNITED STATES", "DAY PHONE": "000-000-0000", "DESCRIPTION '1": "RESTAURANT", "CUISINE": "AMERICAN", "OWNERSHIP": "CORPORATE", "TYPE": "BRICK\/MORTAR", "result_num": "0", "score": "100", "address_match": "1868 Russellville Rd, Bowling Green, Kentucky, 42101", "Loc_name": "World", "Addr_type": "PointAddress", "User_fld": "", "latlong": "36.97981301554471,-86.46727897527967" }, "geometry": { "type": "Point", "coordinates": [ -86.467278975279669, 36.979813015544707 ] } },
{ "type": "Feature", "properties": { "NAME": "WAFFLE HOUSE", "ABC START FOR LICENSE YEAR": null, "START DATE DATE": "04\/29\/2009", "ADDRESS": "1216 THREE SPRINGS RD", "CITY": "BOWLING GREEN", "ST": "KY", "ZIP": "42104", "COUNTRY": "UNITED STATES", "DAY PHONE": "270-843-1489", "DESCRIPTION '1": "RESTAURANT", "CUISINE": "AMERICAN", "OWNERSHIP": "CORPORATE", "TYPE": "BRICK\/MORTAR", "result_num": "0", "score": "100", "address_match": "1216 Three Springs Rd, Bowling Green, Kentucky, 42104", "Loc_name": "World", "Addr_type": "StreetAddress", "User_fld": "", "latlong": "36.92565393031328,-86.4278708678181" }, "geometry": { "type": "Point", "coordinates": [ -86.4278708678181, 36.925653930313281 ] } },
{ "type": "Feature", "properties": { "NAME": "WAFFLE HOUSE", "ABC START FOR LICENSE YEAR": null, "START DATE DATE": "04\/29\/2009", "ADDRESS": "1979 MEL BROWNING RD", "CITY": "BOWLING GREEN", "ST": "KY", "ZIP": "42104", "COUNTRY": "UNITED STATES", "DAY PHONE": "270-781-2658", "DESCRIPTION '1": "RESTAURANT", "CUISINE": "AMERICAN", "OWNERSHIP": "CORPORATE", "TYPE": "BRICK\/MORTAR", "result_num": "0", "score": "98.29", "address_match": "1979 Mel Browning St, Bowling Green, Kentucky, 42104", "Loc_name": "World", "Addr_type": "PointAddress", "User_fld": "", "latlong": "36.931830014536075,-86.41640995927919" }, "geometry": { "type": "Point", "coordinates": [ -86.416409959279193, 36.931830014536075 ] } },
{ "type": "Feature", "properties": { "NAME": "WENDY'S", "ABC START FOR LICENSE YEAR": null, "START DATE DATE": "10\/11\/1994", "ADDRESS": "543 HENNESSEY WAY", "CITY": "BOWLING GREEN", "ST": "KY", "ZIP": "42101", "COUNTRY": "UNITED STATES", "DAY PHONE": "000-000-0000", "DESCRIPTION '1": "RESTAURANT", "CUISINE": "AMERICAN", "OWNERSHIP": "CORPORATE", "TYPE": "BRICK\/MORTAR", "result_num": "0", "score": "98.15", "address_match": "543 Hennessy Way, Bowling Green, Kentucky, 42101", "Loc_name": "World", "Addr_type": "StreetAddress", "User_fld": "", "latlong": "37.00785478721222,-86.3756296999698" }, "geometry": { "type": "Point", "coordinates": [ -86.375629699969807, 37.007854787212217 ] } },
{ "type": "Feature", "properties": { "NAME": "WENDY'S OF BG INC", "ABC START FOR LICENSE YEAR": null, "START DATE DATE": "12\/01\/1975", "ADDRESS": "422 MAIN AVE E", "CITY": "BOWLING GREEN", "ST": "KY", "ZIP": "42101", "COUNTRY": "UNITED STATES", "DAY PHONE": "270-782-6124", "DESCRIPTION '1": "FAST FOOD RESTAURANT", "CUISINE": "AMERICAN", "OWNERSHIP": "CORPORATE", "TYPE": "BRICK\/MORTAR", "result_num": "0", "score": "99.9", "address_match": "422 E Main Ave, Bowling Green, Kentucky, 42101", "Loc_name": "World", "Addr_type": "PointAddress", "User_fld": "", "latlong": "36.99363401950971,-86.44074002580751" }, "geometry": { "type": "Point", "coordinates": [ -86.440740025807514, 36.993634019509713 ] } },
{ "type": "Feature", "properties": { "NAME": "WENDY'S OF BG INC", "ABC START FOR LICENSE YEAR": null, "START DATE DATE": "11\/14\/2001", "ADDRESS": "2625 SCOTTSVILLE RD #108", "CITY": "BOWLING GREEN", "ST": "KY", "ZIP": "42104", "COUNTRY": "UNITED STATES", "DAY PHONE": "270-781-3598", "DESCRIPTION '1": "FAST FOOD RESTAURANT", "CUISINE": "AMERICAN", "OWNERSHIP": "CORPORATE", "TYPE": "BRICK\/MORTAR", "result_num": "0", "score": "100", "address_match": "2625 Scottsville Rd, Bowling Green, Kentucky, 42104", "Loc_name": "World", "Addr_type": "PointAddress", "User_fld": "", "latlong": "36.94865999601254,-86.42798000314644" }, "geometry": { "type": "Point", "coordinates": [ -86.427980003146445, 36.948659996012537 ] } },
{ "type": "Feature", "properties": { "NAME": "WHITE CASTLE ", "ABC START FOR LICENSE YEAR": null, "START DATE DATE": "05\/08\/1989", "ADDRESS": "3039 SCOTTSVILLE RD", "CITY": "BOWLING GREEN", "ST": "KY", "ZIP": "42101", "COUNTRY": "UNITED STATES", "DAY PHONE": "000-000-0000", "DESCRIPTION '1": "RESTAURANT", "CUISINE": "AMERICAN", "OWNERSHIP": "CORPORATE", "TYPE": "BRICK\/MORTAR", "result_num": "0", "score": "100", "address_match": "3039 Scottsville Road, Bowling Green, Kentucky, 42104", "Loc_name": "World", "Addr_type": "PointAddress", "User_fld": "", "latlong": "36.941514004460316,-86.42198602036666" }, "geometry": { "type": "Point", "coordinates": [ -86.42198602036666, 36.941514004460316 ] } },
{ "type": "Feature", "properties": { "NAME": "WING STOP", "ABC START FOR LICENSE YEAR": null, "START DATE DATE": "12\/14\/2015", "ADDRESS": "2435 NASHVILLE RD STE 106", "CITY": "BOWLING GREEN", "ST": "KY", "ZIP": "42104", "COUNTRY": "UNITED STATES", "DAY PHONE": "270-843-9464", "DESCRIPTION '1": "FAST FOOD RESTAURANT", "CUISINE": "AMERICAN", "OWNERSHIP": "CORPORATE", "TYPE": "BRICK\/MORTAR", "result_num": "0", "score": "100", "address_match": "2435 Nashville Rd, Ste 106, Bowling Green, Kentucky, 42101", "Loc_name": "World", "Addr_type": "Subaddress", "User_fld": "", "latlong": "36.96080801401325,-86.46984802860294" }, "geometry": { "type": "Point", "coordinates": [ -86.469848028602939, 36.960808014013253 ] } },
{ "type": "Feature", "properties": { "NAME": "YEUNGS LOTUS EXPRESS", "ABC START FOR LICENSE YEAR": null, "START DATE DATE": "03\/15\/2002", "ADDRESS": "2625 SCOTTSVILLE RD # FC-7", "CITY": "BOWLING GREEN", "ST": "KY", "ZIP": "42104", "COUNTRY": "UNITED STATES", "DAY PHONE": "270-782-6867", "DESCRIPTION '1": "RESTAURANT", "CUISINE": "CHINESE", "OWNERSHIP": "CORPORATE", "TYPE": "BRICK\/MORTAR", "result_num": "0", "score": "100", "address_match": "2625 Scottsville Rd, Bowling Green, Kentucky, 42104", "Loc_name": "World", "Addr_type": "PointAddress", "User_fld": "", "latlong": "36.94865999601254,-86.42798000314644" }, "geometry": { "type": "Point", "coordinates": [ -86.427980003146445, 36.948659996012537 ] } },
{ "type": "Feature", "properties": { "NAME": "ZAXBY'S", "ABC START FOR LICENSE YEAR": null, "START DATE DATE": "09\/02\/1996", "ADDRESS": "1651 CAMPBELL LANE", "CITY": "BOWLING GREEN", "ST": "KY", "ZIP": "42104", "COUNTRY": "UNITED STATES", "DAY PHONE": "270-846-0000", "DESCRIPTION '1": "RESTAURANT", "CUISINE": "AMERICAN", "OWNERSHIP": "CORPORATE", "TYPE": "BRICK\/MORTAR", "result_num": "0", "score": "100", "address_match": "1651 Campbell Ln, Bowling Green, Kentucky, 42104", "Loc_name": "World", "Addr_type": "PointAddress", "User_fld": "", "latlong": "36.95087998497806,-86.43690798731377" }, "geometry": { "type": "Point", "coordinates": [ -86.436907987313774, 36.950879984978059 ] } },
{ "type": "Feature", "properties": { "NAME": "ZAXBY'S RESTAURANT", "ABC START FOR LICENSE YEAR": "1996", "START DATE DATE": "08\/31\/1994", "ADDRESS": "1801 US 31W BYPASS", "CITY": "BOWLING GREEN", "ST": "KY", "ZIP": "42101", "COUNTRY": "UNITED STATES", "DAY PHONE": "000-000-0000", "DESCRIPTION '1": "RESTAURANT", "CUISINE": "AMERICAN", "OWNERSHIP": "CORPORATE", "TYPE": "BRICK\/MORTAR", "result_num": "0", "score": "100", "address_match": "1801 Us 31w Byp, Bowling Green, Kentucky, 42101", "Loc_name": "World", "Addr_type": "PointAddress", "User_fld": "", "latlong": "36.97916999784259,-86.45399701150787" }, "geometry": { "type": "Point", "coordinates": [ -86.453997011507866, 36.97916999784259 ] } },
{ "type": "Feature", "properties": { "NAME": "POPEYES", "ABC START FOR LICENSE YEAR": null, "START DATE DATE": "00\/00\/2020", "ADDRESS": "6860 LOUISVILLE RD", "CITY": "BOWLING GREEN", "ST": "KY", "ZIP": "42101", "COUNTRY": "UNITED STATES", "DAY PHONE": "000-000-000", "DESCRIPTION '1": "RESTAURANT", "CUISINE": "AMERICAN", "OWNERSHIP": "CORPORATE", "TYPE": "BRICK\/MORTAR", "result_num": "0", "score": "100", "address_match": "6860 Louisville Rd, Bowling Green, Kentucky, 42101", "Loc_name": "World", "Addr_type": "StreetAddress", "User_fld": "", "latlong": "37.03587932322611,-86.33926025721532" }, "geometry": { "type": "Point", "coordinates": [ -86.339260257215315, 37.035879323226112 ] } },
{ "type": "Feature", "properties": { "NAME": "IHOP", "ABC START FOR LICENSE YEAR": null, "START DATE DATE": "00\/00\/0000", "ADDRESS": "3240 SCOTTSVILLE RD", "CITY": "BOWLING GREEN", "ST": "KY", "ZIP": "42101", "COUNTRY": "UNITED STATES", "DAY PHONE": "270-904-2333", "DESCRIPTION '1": "RESTAURANT", "CUISINE": "AMERICAN", "OWNERSHIP": "CORPORATE", "TYPE": "BRICK\/MORTAR", "result_num": "0", "score": "100", "address_match": "3240 Scottsville Rd, Bowling Green, Kentucky, 42104", "Loc_name": "World", "Addr_type": "PointAddress", "User_fld": "", "latlong": "36.93899398527061,-86.41942903698396" }, "geometry": { "type": "Point", "coordinates": [ -86.419429036983956, 36.938993985270614 ] } },
{ "type": "Feature", "properties": { "NAME": "PANDA EXPRESS", "ABC START FOR LICENSE YEAR": null, "START DATE DATE": "00\/00\/2019", "ADDRESS": "2500 SCOTTSVILLE RD", "CITY": "BOWLING GREEN", "ST": "KY", "ZIP": "42101", "COUNTRY": "UNITED STATES", "DAY PHONE": "(270) 803-0026", "DESCRIPTION '1": "RESTAURANT ", "CUISINE": "AMERICAN CHINESE", "OWNERSHIP": "CORPORATE", "TYPE": "BRICK\/MORTAR", "result_num": "0", "score": "100", "address_match": "2500 Scottsville Rd, Bowling Green, Kentucky, 42104", "Loc_name": "World", "Addr_type": "PointAddress", "User_fld": "", "latlong": "36.952540020901964,-86.42527197786852" }, "geometry": { "type": "Point", "coordinates": [ -86.425271977868519, 36.952540020901964 ] } },
{ "type": "Feature", "properties": { "NAME": "PANDA EXPRESS", "ABC START FOR LICENSE YEAR": null, "START DATE DATE": "00\/00\/2018", "ADDRESS": "1509 HILLTOP DR", "CITY": "BOWLING GREEN", "ST": "KY", "ZIP": "42101", "COUNTRY": "UNITED STATES", "DAY PHONE": "(270) 745-4282", "DESCRIPTION '1": "RESTAURANT ", "CUISINE": "AMERICAN CHINESE", "OWNERSHIP": "CORPORATE", "TYPE": "BRICK\/MORTAR", "result_num": "0", "score": "100", "address_match": "1509 Hilltop Dr, Bowling Green, Kentucky, 42101", "Loc_name": "World", "Addr_type": "StreetAddress", "User_fld": "", "latlong": "37.00946126146479,-86.53394285724346" }, "geometry": { "type": "Point", "coordinates": [ -86.53394285724346, 37.009461261464793 ] } },
{ "type": "Feature", "properties": { "NAME": "CULVER'S", "ABC START FOR LICENSE YEAR": null, "START DATE DATE": "00\/00\/0000", "ADDRESS": "4903 SCOTTSVILLE RD", "CITY": "BOWLING GREEN", "ST": "KY", "ZIP": "42104", "COUNTRY": "UNITED STATES", "DAY PHONE": "270-901-0221", "DESCRIPTION '1": "RESTAURANT", "CUISINE": "AMERICAN", "OWNERSHIP": "CORPORATE", "TYPE": "BRICK\/MORTAR", "result_num": "0", "score": "100", "address_match": "4903 Scottsville Rd, Bowling Green, Kentucky, 42104", "Loc_name": "World", "Addr_type": "PointAddress", "User_fld": "", "latlong": "36.9283780115323,-86.41283499375584" }, "geometry": { "type": "Point", "coordinates": [ -86.412834993755837, 36.928378011532303 ] } },
{ "type": "Feature", "properties": { "NAME": "DONATOS PIZZA, SUBS, WINGS, SALADS", "ABC START FOR LICENSE YEAR": null, "START DATE DATE": "00\/00\/0000", "ADDRESS": "861 FAIRVIEW AVENUE", "CITY": "BOWLING GREEN", "ST": "KY", "ZIP": "42101", "COUNTRY": "UNITED STATES", "DAY PHONE": "270-715-5111", "DESCRIPTION '1": "RESTAURANT", "CUISINE": "PIZZA", "OWNERSHIP": "CORPORATE", "TYPE": "BRICK\/MORTAR", "result_num": "0", "score": "100", "address_match": "861 Fairview Ave, Bowling Green, Kentucky, 42101", "Loc_name": "World", "Addr_type": "PointAddress", "User_fld": "", "latlong": "36.99076799535693,-86.43311601431719" }, "geometry": { "type": "Point", "coordinates": [ -86.433116014317193, 36.990767995356933 ] } },
{ "type": "Feature", "properties": { "NAME": "RAISING CANE'S", "ABC START FOR LICENSE YEAR": null, "START DATE DATE": "00\/00\/0000", "ADDRESS": "1777 CAMPBELL LANE", "CITY": "BOWLING GREEN", "ST": "KY", "ZIP": "42104", "COUNTRY": "UNITED STATES", "DAY PHONE": "270-883-0234", "DESCRIPTION '1": "RESTAURANT", "CUISINE": "AMERICAN", "OWNERSHIP": "CORPORATE", "TYPE": "BRICK\/MORTAR", "result_num": "0", "score": "100", "address_match": "1777 Campbell Ln, Bowling Green, Kentucky, 42104", "Loc_name": "World", "Addr_type": "StreetAddress", "User_fld": "", "latlong": "36.95283371370698,-86.4321324071889" }, "geometry": { "type": "Point", "coordinates": [ -86.432132407188902, 36.95283371370698 ] } },
{ "type": "Feature", "properties": { "NAME": "WHICH WICH", "ABC START FOR LICENSE YEAR": null, "START DATE DATE": "00\/00\/2020", "ADDRESS": "553 DUNTOV WAY", "CITY": "BOWLING GREEN", "ST": "KY", "ZIP": "42101", "COUNTRY": "UNITED STATES", "DAY PHONE": "000-000-0000", "DESCRIPTION '1": "RESTAURANT ", "CUISINE": "AMERICAN", "OWNERSHIP": "CORPORATE", "TYPE": "BRICK\/MORTAR", "result_num": "0", "score": "100", "address_match": "553 Duntov Way, Bowling Green, Kentucky, 42101", "Loc_name": "World", "Addr_type": "PointAddress", "User_fld": "", "latlong": "37.00702901324584,-86.37441000266672" }, "geometry": { "type": "Point", "coordinates": [ -86.374410002666721, 37.007029013245841 ] } }
]
}
