{
"type": "FeatureCollection",
"name": "local-chain-mapbox",

"features": [
{ "type": "Feature", "properties": { "NAME": "CAMBRIDGE MARKET & CAFE INC", "ABC START FOR LICENSE YEAR": null, "START DATE DATE": "01\/01\/2004", "ADDRESS": "830 FAIRVIEW AVE", "CITY": "BOWLING GREEN", "ST": "KY", "ZIP": "42101", "COUNTRY": "UNITED STATES", "DAY PHONE": "270-782-9366", "DESCRIPTION '1": "RESTAURANT", "CUISINE": "AMERICAN", "OWNERSHIP": "LOCAL CHAIN", "TYPE": "BRICK\/MORTAR", "result_num": "0", "score": "100", "address_match": "830 Fairview Ave, Bowling Green, Kentucky, 42101", "Loc_name": "World", "Addr_type": "PointAddress", "User_fld": "", "latlong": "36.991968996353435,-86.432320990801" }, "geometry": { "type": "Point", "coordinates": [ -86.432320990801003, 36.991968996353435 ] } },
{ "type": "Feature", "properties": { "NAME": "DOUBLE DOGS", "ABC START FOR LICENSE YEAR": "2007", "START DATE DATE": "11\/20\/2007", "ADDRESS": "1780 SCOTTSVILLE RD", "CITY": "BOWLING GREEN", "ST": "KY", "ZIP": "42101", "COUNTRY": "UNITED STATES", "DAY PHONE": "270-843-9357", "DESCRIPTION '1": "RESTAURANT AND BAR", "CUISINE": "AMERICAN", "OWNERSHIP": "LOCAL CHAIN", "TYPE": "BRICK\/MORTAR", "result_num": "0", "score": "100", "address_match": "1780 Scottsville Rd, Bowling Green, Kentucky, 42104", "Loc_name": "World", "Addr_type": "PointAddress", "User_fld": "", "latlong": "36.966714992638074,-86.43171497920142" }, "geometry": { "type": "Point", "coordinates": [ -86.431714979201416, 36.966714992638074 ] } },
{ "type": "Feature", "properties": { "NAME": "EL MAZATLAN #2", "ABC START FOR LICENSE YEAR": "2009", "START DATE DATE": "05\/01\/2009", "ADDRESS": "600 US 31W BYPASS STE #21", "CITY": "BOWLING GREEN", "ST": "KY", "ZIP": "42101", "COUNTRY": "UNITED STATES", "DAY PHONE": "270-393-2070", "DESCRIPTION '1": "RESTAURANT", "CUISINE": "MEXICAN", "OWNERSHIP": "LOCAL CHAIN", "TYPE": "BRICK\/MORTAR", "result_num": "0", "score": "100", "address_match": "600 Us 31w Byp, Ste 21, Bowling Green, Kentucky, 42101", "Loc_name": "World", "Addr_type": "Subaddress", "User_fld": "", "latlong": "36.9891110188277,-86.42626003661485" }, "geometry": { "type": "Point", "coordinates": [ -86.426260036614849, 36.9891110188277 ] } },
{ "type": "Feature", "properties": { "NAME": "EL MAZATLAN #5", "ABC START FOR LICENSE YEAR": "2012", "START DATE DATE": "11\/21\/2012", "ADDRESS": "3521 DAHLIA CT UNIT 102", "CITY": "BOWLING GREEN", "ST": "KY", "ZIP": "42101", "COUNTRY": "UNITED STATES", "DAY PHONE": "270-901-1530", "DESCRIPTION '1": "RESTAURANT", "CUISINE": "MEXICAN", "OWNERSHIP": "LOCAL CHAIN", "TYPE": "BRICK\/MORTAR", "result_num": "0", "score": "100", "address_match": "3521 Dahlia Ct, Bowling Green, Kentucky, 42101", "Loc_name": "World", "Addr_type": "StreetAddress", "User_fld": "", "latlong": "37.01087465370162,-86.38980593403498" }, "geometry": { "type": "Point", "coordinates": [ -86.389805934034982, 37.01087465370162 ] } },
{ "type": "Feature", "properties": { "NAME": "EL MAZATLAN #6", "ABC START FOR LICENSE YEAR": "2013", "START DATE DATE": "05\/01\/2013", "ADDRESS": "2435 NASHVILLE RD STE 102", "CITY": "BOWLING GREEN", "ST": "KY", "ZIP": "42101", "COUNTRY": "UNITED STATES", "DAY PHONE": "000-000-0000", "DESCRIPTION '1": "RESTAURANT", "CUISINE": "MEXICAN", "OWNERSHIP": "LOCAL CHAIN", "TYPE": "BRICK\/MORTAR", "result_num": "0", "score": "100", "address_match": "2435 Nashville Rd, Ste 102, Bowling Green, Kentucky, 42101", "Loc_name": "World", "Addr_type": "Subaddress", "User_fld": "", "latlong": "36.96080801401325,-86.46984802860294" }, "geometry": { "type": "Point", "coordinates": [ -86.469848028602939, 36.960808014013253 ] } },
{ "type": "Feature", "properties": { "NAME": "EL MAZATLAN #8", "ABC START FOR LICENSE YEAR": "2016", "START DATE DATE": "09\/10\/2016", "ADDRESS": "300 CUMBERLAND TRACE RD", "CITY": "BOWLING GREEN", "ST": "KY", "ZIP": "42101", "COUNTRY": "UNITED STATES", "DAY PHONE": "000-000-0000", "DESCRIPTION '1": "RESTAURANT", "CUISINE": "MEXICAN", "OWNERSHIP": "LOCAL CHAIN", "TYPE": "BRICK\/MORTAR", "result_num": "0", "score": "100", "address_match": "300 Cumberland Trace Rd, Bowling Green, Kentucky, 42103", "Loc_name": "World", "Addr_type": "PointAddress", "User_fld": "", "latlong": "36.93783698926579,-86.41418699473803" }, "geometry": { "type": "Point", "coordinates": [ -86.414186994738031, 36.93783698926579 ] } },
{ "type": "Feature", "properties": { "NAME": "FIREHOUSE PIZZA OF KENTUCKY IN", "ABC START FOR LICENSE YEAR": null, "START DATE DATE": "08\/01\/2007", "ADDRESS": "1703 US 31W BYPASS", "CITY": "BOWLING GREEN", "ST": "KY", "ZIP": "42101", "COUNTRY": "UNITED STATES", "DAY PHONE": "270-781-3246", "DESCRIPTION '1": "PIZZA PICK UP & DELIVERY", "CUISINE": "PIZZA", "OWNERSHIP": "LOCAL CHAIN", "TYPE": "BRICK\/MORTAR", "result_num": "0", "score": "97.91", "address_match": "1703 US-31W S, Bowling Green, Kentucky, 42101", "Loc_name": "World", "Addr_type": "StreetAddress", "User_fld": "", "latlong": "36.97704501272224,-86.45696430245735" }, "geometry": { "type": "Point", "coordinates": [ -86.456964302457351, 36.977045012722243 ] } },
{ "type": "Feature", "properties": { "NAME": "ICHIBAN JAPANESE REST", "ABC START FOR LICENSE YEAR": "2014", "START DATE DATE": "07\/01\/2014", "ADDRESS": "1971 CAVE MILL RD STE 2", "CITY": "BOWLING GREEN", "ST": "KY", "ZIP": "42101", "COUNTRY": "UNITED STATES", "DAY PHONE": "270-783-4110", "DESCRIPTION '1": "JAPANESE RESTAURANT         *", "CUISINE": "JAPANESE", "OWNERSHIP": "LOCAL CHAIN", "TYPE": "BRICK\/MORTAR", "result_num": "0", "score": "100", "address_match": "1971 Cave Mill Rd, Ste 2, Bowling Green, Kentucky, 42104", "Loc_name": "World", "Addr_type": "Subaddress", "User_fld": "", "latlong": "36.94492300830079,-86.42424703874823" }, "geometry": { "type": "Point", "coordinates": [ -86.424247038748234, 36.94492300830079 ] } },
{ "type": "Feature", "properties": { "NAME": "ICHIBAN JAPANESE REST #1 LLC", "ABC START FOR LICENSE YEAR": "2018", "START DATE DATE": "11\/01\/2018", "ADDRESS": "1423 US 31W BYPASS", "CITY": "BOWLING GREEN", "ST": "KY", "ZIP": "42101", "COUNTRY": "UNITED STATES", "DAY PHONE": "270-791-3320", "DESCRIPTION '1": "RESTAURANT", "CUISINE": "JAPANESE", "OWNERSHIP": "LOCAL CHAIN", "TYPE": "BRICK\/MORTAR", "result_num": "0", "score": "100", "address_match": "1423 Us 31w Byp, Bowling Green, Kentucky, 42101", "Loc_name": "World", "Addr_type": "PointAddress", "User_fld": "", "latlong": "36.9814290045674,-86.44465697298044" }, "geometry": { "type": "Point", "coordinates": [ -86.444656972980439, 36.981429004567403 ] } },
{ "type": "Feature", "properties": { "NAME": "KYOTO DINER LLC", "ABC START FOR LICENSE YEAR": null, "START DATE DATE": "01\/01\/2011", "ADDRESS": "2800 4 SCOTTSVILLE RD", "CITY": "BOWLING GREEN", "ST": "KY", "ZIP": "42101", "COUNTRY": "UNITED STATES", "DAY PHONE": "000-000-0000", "DESCRIPTION '1": "RESTAURANT", "CUISINE": "JAPANESE\/STEAKHOUSE", "OWNERSHIP": "LOCAL CHAIN", "TYPE": "BRICK\/MORTAR", "result_num": "0", "score": "96.02", "address_match": "Scottsville Rd, Bowling Green, Kentucky, 42104", "Loc_name": "World", "Addr_type": "StreetName", "User_fld": "", "latlong": "36.919224321993056,-86.40843314816446" }, "geometry": { "type": "Point", "coordinates": [ -86.408433148164463, 36.919224321993056 ] } },
{ "type": "Feature", "properties": { "NAME": "KYOTO GARDENS JAPANESE STEAK", "ABC START FOR LICENSE YEAR": null, "START DATE DATE": "05\/01\/2009", "ADDRESS": "760 CAMPBELL LN  STE 110", "CITY": "BOWLING GREEN", "ST": "KY", "ZIP": "42104", "COUNTRY": "UNITED STATES", "DAY PHONE": "270-320-4566", "DESCRIPTION '1": "JAPANESE RESTAURANT", "CUISINE": "JAPANESE\/STEAKHOUSE", "OWNERSHIP": "LOCAL CHAIN", "TYPE": "BRICK\/MORTAR", "result_num": "0", "score": "100", "address_match": "760 Campbell Ln, Ste 110, Bowling Green, Kentucky, 42104", "Loc_name": "World", "Addr_type": "Subaddress", "User_fld": "", "latlong": "36.96235799554846,-86.4639589872509" }, "geometry": { "type": "Point", "coordinates": [ -86.463958987250905, 36.962357995548459 ] } },
{ "type": "Feature", "properties": { "NAME": "LIQUOR BARN", "ABC START FOR LICENSE YEAR": "2012", "START DATE DATE": "11\/15\/2012", "ADDRESS": "2625 SCOTTSVILLE RD", "CITY": "BOWLING GREEN", "ST": "KY", "ZIP": "42101", "COUNTRY": "UNITED STATES", "DAY PHONE": "000-000-0000", "DESCRIPTION '1": "LIQUOR STORE", "CUISINE": "LIQUOR", "OWNERSHIP": "LOCAL CHAIN", "TYPE": "BRICK\/MORTAR", "result_num": "0", "score": "100", "address_match": "2625 Scottsville Rd, Bowling Green, Kentucky, 42104", "Loc_name": "World", "Addr_type": "PointAddress", "User_fld": "", "latlong": "36.94865999601254,-86.42798000314644" }, "geometry": { "type": "Point", "coordinates": [ -86.427980003146445, 36.948659996012537 ] } },
{ "type": "Feature", "properties": { "NAME": "LIQUOR BARN", "ABC START FOR LICENSE YEAR": null, "START DATE DATE": "11\/18\/2017", "ADDRESS": "2625 SCOTTSVILLE ROAD", "CITY": "BOWLING GREEN", "ST": "KY", "ZIP": "42104", "COUNTRY": "UNITED STATES", "DAY PHONE": "270-467-9974", "DESCRIPTION '1": "RETAIL LIQUOR\/BEER SALES", "CUISINE": "LIQUOR", "OWNERSHIP": "LOCAL CHAIN", "TYPE": "BRICK\/MORTAR", "result_num": "0", "score": "100", "address_match": "2625 Scottsville Rd, Bowling Green, Kentucky, 42104", "Loc_name": "World", "Addr_type": "PointAddress", "User_fld": "", "latlong": "36.94865999601254,-86.42798000314644" }, "geometry": { "type": "Point", "coordinates": [ -86.427980003146445, 36.948659996012537 ] } },
{ "type": "Feature", "properties": { "NAME": "MISTER B'S PIZZA", "ABC START FOR LICENSE YEAR": "2011", "START DATE DATE": "12\/01\/2011", "ADDRESS": "1945 SCOTTSVILLE RD STE 300", "CITY": "BOWLING GREEN", "ST": "KY", "ZIP": "42104", "COUNTRY": "UNITED STATES", "DAY PHONE": "270-957-0286", "DESCRIPTION '1": "PIZZA RESTAURANT", "CUISINE": "AMERICAN", "OWNERSHIP": "LOCAL CHAIN", "TYPE": "BRICK\/MORTAR", "result_num": "0", "score": "100", "address_match": "1945 Scottsville Rd, Ste 300, Bowling Green, Kentucky, 42104", "Loc_name": "World", "Addr_type": "Subaddress", "User_fld": "", "latlong": "36.96279699772727,-86.43165203110857" }, "geometry": { "type": "Point", "coordinates": [ -86.43165203110857, 36.962796997727267 ] } },
{ "type": "Feature", "properties": { "NAME": "MONTANA GRILLE", "ABC START FOR LICENSE YEAR": "1999", "START DATE DATE": "12\/10\/1999", "ADDRESS": "1740 SCOTTSVILLE RD", "CITY": "BOWLING GREEN", "ST": "KY", "ZIP": "42104", "COUNTRY": "UNITED STATES", "DAY PHONE": "270-746-9746", "DESCRIPTION '1": "RESTAURANT", "CUISINE": "AMERICAN", "OWNERSHIP": "LOCAL CHAIN", "TYPE": "BRICK\/MORTAR", "result_num": "0", "score": "100", "address_match": "1740 Scottsville Rd, Bowling Green, Kentucky, 42104", "Loc_name": "World", "Addr_type": "PointAddress", "User_fld": "", "latlong": "36.9684109869266,-86.43257697412399" }, "geometry": { "type": "Point", "coordinates": [ -86.43257697412399, 36.9684109869266 ] } },
{ "type": "Feature", "properties": { "NAME": "NOVO 2.0 ", "ABC START FOR LICENSE YEAR": "2014", "START DATE DATE": "01\/24\/2014", "ADDRESS": "651 US 31W BY PASS  #101", "CITY": "BOWLING GREEN", "ST": "KY", "ZIP": "42101", "COUNTRY": "UNITED STATES", "DAY PHONE": "000-000-0000", "DESCRIPTION '1": "RESTAURANT AND BAR", "CUISINE": "AMERICAN", "OWNERSHIP": "LOCAL CHAIN", "TYPE": "BRICK\/MORTAR", "result_num": "0", "score": "97.91", "address_match": "651 US-31W, Bowling Green, Kentucky, 42101", "Loc_name": "World", "Addr_type": "StreetAddress", "User_fld": "", "latlong": "37.00340438836217,-86.43105008244827" }, "geometry": { "type": "Point", "coordinates": [ -86.431050082448266, 37.003404388362171 ] } },
{ "type": "Feature", "properties": { "NAME": "PRESERVATION TASTING ROOM &", "ABC START FOR LICENSE YEAR": "2016", "START DATE DATE": "09\/01\/2016", "ADDRESS": "2440 NASHVILLE RD  UNIT 103", "CITY": "BOWLING GREEN", "ST": "KY", "ZIP": "42101", "COUNTRY": "UNITED STATES", "DAY PHONE": "270-784-5576", "DESCRIPTION '1": "BOTTLE SHOP", "CUISINE": "WINE BAR", "OWNERSHIP": "LOCAL CHAIN", "TYPE": "BRICK\/MORTAR", "result_num": "0", "score": "100", "address_match": "2440 Nashville Rd, Ste 103, Bowling Green, Kentucky, 42101", "Loc_name": "World", "Addr_type": "Subaddress", "User_fld": "", "latlong": "36.95934901803702,-86.46928300450988" }, "geometry": { "type": "Point", "coordinates": [ -86.469283004509876, 36.959349018037017 ] } },
{ "type": "Feature", "properties": { "NAME": "PUB BY NOVO", "ABC START FOR LICENSE YEAR": "2016", "START DATE DATE": "08\/01\/2016", "ADDRESS": "GROUP LLC", "CITY": "BOWLING GREEN", "ST": "KY", "ZIP": "42101", "COUNTRY": "UNITED STATES", "DAY PHONE": "954-663-4977", "DESCRIPTION '1": "RESTAURANT", "CUISINE": "AMERICAN", "OWNERSHIP": "LOCAL CHAIN", "TYPE": "BRICK\/MORTAR", "result_num": "0", "score": "90.59", "address_match": "Bowling Green, Kentucky", "Loc_name": "World", "Addr_type": "Locality", "User_fld": "", "latlong": "36.994620000000054,-86.44557999999995" }, "geometry": { "type": "Point", "coordinates": [ -86.44558, 36.99462 ] } },
{ "type": "Feature", "properties": { "NAME": "PUERTO VALLARATA MEXICAN REST", "ABC START FOR LICENSE YEAR": "2005", "START DATE DATE": "01\/19\/2005", "ADDRESS": "140 RIVERPLACE AVE  STE A", "CITY": "BOWLING GREEN", "ST": "KY", "ZIP": "42101", "COUNTRY": "UNITED STATES", "DAY PHONE": "270-783-0433", "DESCRIPTION '1": "MEXICAN RESTAURANT          *", "CUISINE": "MEXICAN", "OWNERSHIP": "LOCAL CHAIN", "TYPE": "BRICK\/MORTAR", "result_num": "0", "score": "99.99", "address_match": "140 River Place Ave, Ste A, Bowling Green, Kentucky, 42101", "Loc_name": "World", "Addr_type": "Subaddress", "User_fld": "", "latlong": "37.009050979748864,-86.39190303459387" }, "geometry": { "type": "Point", "coordinates": [ -86.391903034593867, 37.009050979748864 ] } },
{ "type": "Feature", "properties": { "NAME": "PUERTO VALLARTA", "ABC START FOR LICENSE YEAR": "1996", "START DATE DATE": "06\/15\/1992", "ADDRESS": "2800 SCOTTSVILLE RD", "CITY": "BOWLING GREEN", "ST": "KY", "ZIP": "42104", "COUNTRY": "UNITED STATES", "DAY PHONE": "270-782-6264", "DESCRIPTION '1": "RESTAURANT", "CUISINE": "MEXICAN", "OWNERSHIP": "LOCAL CHAIN", "TYPE": "BRICK\/MORTAR", "result_num": "0", "score": "100", "address_match": "2800 Scottsville Rd, Bowling Green, Kentucky, 42104", "Loc_name": "World", "Addr_type": "PointAddress", "User_fld": "", "latlong": "36.947368009457065,-86.42236002088634" }, "geometry": { "type": "Point", "coordinates": [ -86.422360020886345, 36.947368009457065 ] } },
{ "type": "Feature", "properties": { "NAME": "PUERTO VALLARTA MEXICAN", "ABC START FOR LICENSE YEAR": "1996", "START DATE DATE": "06\/28\/1991", "ADDRESS": "1632 US 31W BYPASS", "CITY": "BOWLING GREEN", "ST": "KY", "ZIP": "4210", "COUNTRY": "UNITED STATES", "DAY PHONE": "000-000-0000", "DESCRIPTION '1": "RESTAURANT", "CUISINE": "MEXICAN", "OWNERSHIP": "LOCAL CHAIN", "TYPE": "BRICK\/MORTAR", "result_num": "0", "score": "100", "address_match": "1632 Us 31w Byp, Bowling Green, Kentucky, 42101", "Loc_name": "World", "Addr_type": "PointAddress", "User_fld": "", "latlong": "36.978941004247844,-86.45104096571498" }, "geometry": { "type": "Point", "coordinates": [ -86.451040965714981, 36.978941004247844 ] } },
{ "type": "Feature", "properties": { "NAME": "PUERTO VALLARTA MEXICAN REST", "ABC START FOR LICENSE YEAR": "2000", "START DATE DATE": "09\/01\/2000", "ADDRESS": "741 CAMPBELL LN", "CITY": "BOWLING GREEN", "ST": "KY", "ZIP": "42104", "COUNTRY": "UNITED STATES", "DAY PHONE": "270-796-3842", "DESCRIPTION '1": "RESTAURANT", "CUISINE": "MEXICAN", "OWNERSHIP": "LOCAL CHAIN", "TYPE": "BRICK\/MORTAR", "result_num": "0", "score": "100", "address_match": "741 Campbell Ln, Bowling Green, Kentucky, 42104", "Loc_name": "World", "Addr_type": "PointAddress", "User_fld": "", "latlong": "36.959881017431556,-86.46589897874087" }, "geometry": { "type": "Point", "coordinates": [ -86.465898978740867, 36.959881017431556 ] } },
{ "type": "Feature", "properties": { "NAME": "QUE BUENO'S FRESH MEXICAN GRIL", "ABC START FOR LICENSE YEAR": "2016", "START DATE DATE": "12\/09\/2014", "ADDRESS": "1633 US 31W BYPASS", "CITY": "BOWLING GREEN", "ST": "KY", "ZIP": "42101", "COUNTRY": "UNITED STATES", "DAY PHONE": "270-904-1218", "DESCRIPTION '1": "RESTAURANT", "CUISINE": "MEXICAN", "OWNERSHIP": "LOCAL CHAIN", "TYPE": "BRICK\/MORTAR", "result_num": "0", "score": "100", "address_match": "1633 Us 31w Byp, Bowling Green, Kentucky, 42101", "Loc_name": "World", "Addr_type": "PointAddress", "User_fld": "", "latlong": "36.97974801388557,-86.45092998931693" }, "geometry": { "type": "Point", "coordinates": [ -86.450929989316933, 36.979748013885569 ] } },
{ "type": "Feature", "properties": { "NAME": "RAFFERTY'S INC", "ABC START FOR LICENSE YEAR": "1996", "START DATE DATE": "04\/22\/1981", "ADDRESS": "1939 SCOTTSVILLE RD", "CITY": "BOWLING GREEN", "ST": "KY", "ZIP": "42104", "COUNTRY": "UNITED STATES", "DAY PHONE": "000-000-0000", "DESCRIPTION '1": "RESTAURANT", "CUISINE": "AMERICAN", "OWNERSHIP": "LOCAL CHAIN", "TYPE": "BRICK\/MORTAR", "result_num": "0", "score": "100", "address_match": "1939 Scottsville Rd, Bowling Green, Kentucky, 42104", "Loc_name": "World", "Addr_type": "PointAddress", "User_fld": "", "latlong": "36.961765017808304,-86.43123695926333" }, "geometry": { "type": "Point", "coordinates": [ -86.43123695926333, 36.961765017808304 ] } },
{ "type": "Feature", "properties": { "NAME": "REE REE'S BBQ", "ABC START FOR LICENSE YEAR": null, "START DATE DATE": "04\/03\/2015", "ADDRESS": "520 BEAUTY AVE", "CITY": "BOWLING GREEN", "ST": "KY", "ZIP": "42101", "COUNTRY": "UNITED STATES", "DAY PHONE": "270-792-3199", "DESCRIPTION '1": "BARBEQUE RESTAURANT", "CUISINE": "BBQ", "OWNERSHIP": "LOCAL CHAIN", "TYPE": "BRICK\/MORTAR", "result_num": "0", "score": "100", "address_match": "520 Beauty Ave, Bowling Green, Kentucky, 42101", "Loc_name": "World", "Addr_type": "StreetAddress", "User_fld": "", "latlong": "37.00394313385252,-86.44467322812363" }, "geometry": { "type": "Point", "coordinates": [ -86.444673228123634, 37.003943133852523 ] } },
{ "type": "Feature", "properties": { "NAME": "RON AND FAYES PLACE LLC", "ABC START FOR LICENSE YEAR": "2012", "START DATE DATE": "05\/24\/2012", "ADDRESS": "819 CHURCH AVE", "CITY": "BOWLING GREEN", "ST": "KY", "ZIP": "42101", "COUNTRY": "UNITED STATES", "DAY PHONE": "270-782-5564", "DESCRIPTION '1": "BAR", "CUISINE": "BAR", "OWNERSHIP": "LOCAL CHAIN", "TYPE": "BRICK\/MORTAR", "result_num": "0", "score": "100", "address_match": "819 Church Ave, Bowling Green, Kentucky, 42101", "Loc_name": "World", "Addr_type": "StreetAddress", "User_fld": "", "latlong": "37.006238955390906,-86.45004338731017" }, "geometry": { "type": "Point", "coordinates": [ -86.450043387310174, 37.006238955390906 ] } },
{ "type": "Feature", "properties": { "NAME": "SAM'S GYROS", "ABC START FOR LICENSE YEAR": null, "START DATE DATE": "04\/01\/2013", "ADDRESS": "2625 SCOTTSVILLE RD", "CITY": "BOWLING GREEN", "ST": "KY", "ZIP": "42104", "COUNTRY": "UNITED STATES", "DAY PHONE": "270-843-1002", "DESCRIPTION '1": "RESTAURANT FOOD COURT", "CUISINE": "GREEK", "OWNERSHIP": "LOCAL CHAIN", "TYPE": "BRICK\/MORTAR", "result_num": "0", "score": "100", "address_match": "2625 Scottsville Rd, Bowling Green, Kentucky, 42104", "Loc_name": "World", "Addr_type": "PointAddress", "User_fld": "", "latlong": "36.94865999601254,-86.42798000314644" }, "geometry": { "type": "Point", "coordinates": [ -86.427980003146445, 36.948659996012537 ] } },
{ "type": "Feature", "properties": { "NAME": "SAM'S GYROS", "ABC START FOR LICENSE YEAR": null, "START DATE DATE": "04\/01\/2018", "ADDRESS": "1006 STATE STREET", "CITY": "BOWLING GREEN", "ST": "KY", "ZIP": "42101", "COUNTRY": "UNITED STATES", "DAY PHONE": "270-792-6194", "DESCRIPTION '1": "GREEK RESTAURANT", "CUISINE": "GREEK", "OWNERSHIP": "LOCAL CHAIN", "TYPE": "BRICK\/MORTAR", "result_num": "0", "score": "100", "address_match": "1006 State St, Bowling Green, Kentucky, 42101", "Loc_name": "World", "Addr_type": "StreetAddress", "User_fld": "", "latlong": "36.99173277666084,-86.44217589315835" }, "geometry": { "type": "Point", "coordinates": [ -86.44217589315835, 36.991732776660839 ] } },
{ "type": "Feature", "properties": { "NAME": "SHENANIGANS WINE & SPIRITS", "ABC START FOR LICENSE YEAR": "2018", "START DATE DATE": "08\/01\/2018", "ADDRESS": "955 FIELDS DR  #106", "CITY": "BOWLING GREEN", "ST": "KY", "ZIP": "42101", "COUNTRY": "UNITED STATES", "DAY PHONE": "870-613-0909", "DESCRIPTION '1": "PACKAGE WINE& BEER RETAIL LOC", "CUISINE": "LIQUOR", "OWNERSHIP": "LOCAL CHAIN", "TYPE": "BRICK\/MORTAR", "result_num": "0", "score": "100", "address_match": "955 Fields Dr, Ste 106, Bowling Green, Kentucky, 42104", "Loc_name": "World", "Addr_type": "Subaddress", "User_fld": "", "latlong": "36.960062988549495,-86.4628020331556" }, "geometry": { "type": "Point", "coordinates": [ -86.462802033155597, 36.960062988549495 ] } },
{ "type": "Feature", "properties": { "NAME": "SHOGUN EXPRESS", "ABC START FOR LICENSE YEAR": null, "START DATE DATE": "12\/20\/2010", "ADDRESS": "830 FAIRVIEW AVE STE B 9", "CITY": "BOWLING GREEN", "ST": "KY", "ZIP": "42101", "COUNTRY": "UNITED STATES", "DAY PHONE": "270-846-2600", "DESCRIPTION '1": "CARRY OUT RESTAURANT", "CUISINE": "JAPANESE", "OWNERSHIP": "LOCAL CHAIN", "TYPE": "BRICK\/MORTAR", "result_num": "0", "score": "99.78", "address_match": "830 Fairview Ave, Bowling Green, Kentucky, 42101", "Loc_name": "World", "Addr_type": "PointAddress", "User_fld": "", "latlong": "36.991968996353435,-86.432320990801" }, "geometry": { "type": "Point", "coordinates": [ -86.432320990801003, 36.991968996353435 ] } },
{ "type": "Feature", "properties": { "NAME": "SHOGUN OF JAPAN", "ABC START FOR LICENSE YEAR": "2011", "START DATE DATE": "08\/10\/2011", "ADDRESS": "761 CAMPBELL LANE", "CITY": "BOWLING GREEN", "ST": "KY", "ZIP": "42104", "COUNTRY": "UNITED STATES", "DAY PHONE": "270-846-2600", "DESCRIPTION '1": "RESTAURANT", "CUISINE": "JAPANESE\/STEAKHOUSE", "OWNERSHIP": "LOCAL CHAIN", "TYPE": "BRICK\/MORTAR", "result_num": "0", "score": "100", "address_match": "761 Campbell Ln, Bowling Green, Kentucky, 42104", "Loc_name": "World", "Addr_type": "PointAddress", "User_fld": "", "latlong": "36.96106001593222,-86.46403400528432" }, "geometry": { "type": "Point", "coordinates": [ -86.464034005284319, 36.961060015932219 ] } },
{ "type": "Feature", "properties": { "NAME": "SHOGUN OF JAPAN", "ABC START FOR LICENSE YEAR": "2017", "START DATE DATE": "08\/10\/2011", "ADDRESS": "4665 SCOTTSVILLE RD", "CITY": "BOWLING GREEN", "ST": "KY", "ZIP": "42104", "COUNTRY": "UNITED STATES", "DAY PHONE": "270-715-0721", "DESCRIPTION '1": "RESTAURANT", "CUISINE": "JAPANESE\/STEAKHOUSE", "OWNERSHIP": "LOCAL CHAIN", "TYPE": "BRICK\/MORTAR", "result_num": "0", "score": "100", "address_match": "4665 Scottsville Rd, Bowling Green, Kentucky, 42104", "Loc_name": "World", "Addr_type": "PointAddress", "User_fld": "", "latlong": "36.93135999931552,-86.41537001655222" }, "geometry": { "type": "Point", "coordinates": [ -86.415370016552217, 36.931359999315518 ] } },
{ "type": "Feature", "properties": { "NAME": "SPENCERS COFFEE", "ABC START FOR LICENSE YEAR": "2015", "START DATE DATE": "03\/15\/2005", "ADDRESS": "915 COLLEGE ST", "CITY": "BOWLING GREEN", "ST": "KY", "ZIP": "42101", "COUNTRY": "UNITED STATES", "DAY PHONE": "270-393-7060", "DESCRIPTION '1": "COFFEE SHOP                  *", "CUISINE": "COFFEE SHOP", "OWNERSHIP": "LOCAL CHAIN", "TYPE": "BRICK\/MORTAR", "result_num": "0", "score": "100", "address_match": "915 College St, Bowling Green, Kentucky, 42101", "Loc_name": "World", "Addr_type": "StreetAddress", "User_fld": "", "latlong": "36.993811572733065,-86.44181182237345" }, "geometry": { "type": "Point", "coordinates": [ -86.441811822373452, 36.993811572733065 ] } },
{ "type": "Feature", "properties": { "NAME": "WING STATION", "ABC START FOR LICENSE YEAR": null, "START DATE DATE": "11\/14\/2015", "ADDRESS": "306 OLD MORGANTOWN RD A", "CITY": "BOWLING GREEN", "ST": "KY", "ZIP": "42101", "COUNTRY": "UNITED STATES", "DAY PHONE": "502-500-0776", "DESCRIPTION '1": "RESTAURANT", "CUISINE": "AMERICAN", "OWNERSHIP": "LOCAL CHAIN", "TYPE": "BRICK\/MORTAR", "result_num": "0", "score": "100", "address_match": "306 Old Morgantown Rd, Bowling Green, Kentucky, 42101", "Loc_name": "World", "Addr_type": "PointAddress", "User_fld": "", "latlong": "36.988875990262656,-86.4598609909694" }, "geometry": { "type": "Point", "coordinates": [ -86.459860990969403, 36.988875990262656 ] } }
]
}
