{
"type": "FeatureCollection",
"name": "private-mapbox",

"features": [
{ "type": "Feature", "properties": { "NAME": "1306 RESTAURANT LLC", "ABC START FOR LICENSE YEAR": "2017", "START DATE DATE": "01\/01\/2018", "ADDRESS": "1306 CENTER ST", "CITY": "BOWLING GREEN", "ST": "KY", "ZIP": "42101", "COUNTRY": "UNITED STATES", "DAY PHONE": "270-495-4205", "DESCRIPTION '1": "RESTAURANT", "CUISINE": "AMERICAN", "OWNERSHIP": "PRIVATE", "TYPE": "BRICK\/MORTAR", "result_num": "0", "score": "100", "address_match": "1306 Center St, Bowling Green, Kentucky, 42101", "Loc_name": "World", "Addr_type": "PointAddress", "User_fld": "", "latlong": "36.99060500924969,-86.44891104029907" }, "geometry": { "type": "Point", "coordinates": [ -86.448911040299066, 36.990605009249691 ] } },
{ "type": "Feature", "properties": { "NAME": "3 VOLCANES LLC", "ABC START FOR LICENSE YEAR": "2018", "START DATE DATE": "11\/30\/2018", "ADDRESS": "306B OLD MORGANTOWN RD", "CITY": "BOWLING GREEN", "ST": "KY", "ZIP": "42101", "COUNTRY": "UNITED STATES", "DAY PHONE": "270-929-5406", "DESCRIPTION '1": "MEXICAN RESTAURANT", "CUISINE": "MEXICAN", "OWNERSHIP": "PRIVATE", "TYPE": "BRICK\/MORTAR", "result_num": "0", "score": "100", "address_match": "306B Old Morgantown Rd, Bowling Green, Kentucky, 42101", "Loc_name": "World", "Addr_type": "StreetAddress", "User_fld": "", "latlong": "36.988700743174554,-86.45964941952305" }, "geometry": { "type": "Point", "coordinates": [ -86.459649419523046, 36.988700743174554 ] } },
{ "type": "Feature", "properties": { "NAME": "440 MAIN", "ABC START FOR LICENSE YEAR": "1999", "START DATE DATE": "12\/31\/1998", "ADDRESS": "CRAWDADDY ENTERPRISES", "CITY": "BOWLING GREEN", "ST": "KY", "ZIP": "42101", "COUNTRY": "UNITED STATES", "DAY PHONE": "270-793-0450", "DESCRIPTION '1": "RESTAURANT", "CUISINE": "AMERICAN", "OWNERSHIP": "PRIVATE", "TYPE": "BRICK\/MORTAR", "result_num": "0", "score": "86.41", "address_match": "Enterprise", "Loc_name": "World", "Addr_type": "POI", "User_fld": "", "latlong": "36.98366000000004,-86.43816999999996" }, "geometry": { "type": "Point", "coordinates": [ -86.43817, 36.98366 ] } },
{ "type": "Feature", "properties": { "NAME": "ADKINS THOMAS", "ABC START FOR LICENSE YEAR": null, "START DATE DATE": "08\/01\/2017", "ADDRESS": "900 FAIRVIEW AVE STE C", "CITY": "BOWLING GREEN", "ST": "KY", "ZIP": "42101", "COUNTRY": "UNITED STATES", "DAY PHONE": "606-776-0445", "DESCRIPTION '1": "NUTRITION", "CUISINE": "HEALTH FOOD ", "OWNERSHIP": "PRIVATE", "TYPE": "BRICK\/MORTAR", "result_num": "0", "score": "100", "address_match": "900 Fairview Ave, Bowling Green, Kentucky, 42101", "Loc_name": "World", "Addr_type": "PointAddress", "User_fld": "", "latlong": "36.99126500030573,-86.43107300923721" }, "geometry": { "type": "Point", "coordinates": [ -86.43107300923721, 36.991265000305731 ] } },
{ "type": "Feature", "properties": { "NAME": "ALBANY'S STEAKHOUSE", "ABC START FOR LICENSE YEAR": null, "START DATE DATE": "05\/01\/2008", "ADDRESS": "801 A CAMPBELL LN", "CITY": "BOWLING GREEN", "ST": "KY", "ZIP": "42104", "COUNTRY": "UNITED STATES", "DAY PHONE": "027-078-3882", "DESCRIPTION '1": "RESTAURANT", "CUISINE": "AMERICAN", "OWNERSHIP": "PRIVATE", "TYPE": "BRICK\/MORTAR", "result_num": "0", "score": "99.99", "address_match": "801 Campbell Ln, Bowling Green, Kentucky, 42104", "Loc_name": "World", "Addr_type": "PointAddress", "User_fld": "", "latlong": "36.960953984857056,-86.46266297738192" }, "geometry": { "type": "Point", "coordinates": [ -86.462662977381925, 36.960953984857056 ] } },
{ "type": "Feature", "properties": { "NAME": "ANNA'S RESTAURANT & BAR", "ABC START FOR LICENSE YEAR": null, "START DATE DATE": "01\/01\/2017", "ADDRESS": "1202 STATE ST", "CITY": "BOWLING GREEN", "ST": "KY", "ZIP": "42104", "COUNTRY": "UNITED STATES", "DAY PHONE": "270-846-2662", "DESCRIPTION '1": "RESTAURANT & BAR", "CUISINE": "GREEK", "OWNERSHIP": "PRIVATE", "TYPE": "BRICK\/MORTAR", "result_num": "0", "score": "100", "address_match": "1202 State St, Bowling Green, Kentucky, 42101", "Loc_name": "World", "Addr_type": "PointAddress", "User_fld": "", "latlong": "36.98973899101361,-86.44470198380048" }, "geometry": { "type": "Point", "coordinates": [ -86.444701983800485, 36.98973899101361 ] } },
{ "type": "Feature", "properties": { "NAME": "ARANDA'S RESTAURANT", "ABC START FOR LICENSE YEAR": "2015", "START DATE DATE": "01\/01\/2016", "ADDRESS": "132 MAIN AVE W", "CITY": "BOWLING GREEN", "ST": "KY", "ZIP": "42101", "COUNTRY": "UNITED STATES", "DAY PHONE": "270-904-2859", "DESCRIPTION '1": "RESTAURANT", "CUISINE": "MEXICAN", "OWNERSHIP": "PRIVATE", "TYPE": "BRICK\/MORTAR", "result_num": "0", "score": "99.9", "address_match": "132 W Main Ave, Bowling Green, Kentucky, 42101", "Loc_name": "World", "Addr_type": "PointAddress", "User_fld": "", "latlong": "36.99898200901178,-86.44603101836799" }, "geometry": { "type": "Point", "coordinates": [ -86.446031018367989, 36.998982009011783 ] } },
{ "type": "Feature", "properties": { "NAME": "B G DONUTS", "ABC START FOR LICENSE YEAR": null, "START DATE DATE": "11\/14\/2014", "ADDRESS": "1755 SCOTTSVILLE RD STE 3-4B", "CITY": "BOWLING GREEN", "ST": "KY", "ZIP": "42104", "COUNTRY": "UNITED STATES", "DAY PHONE": "931-505-3506", "DESCRIPTION '1": "DONUT STORE", "CUISINE": "DONUTS", "OWNERSHIP": "PRIVATE", "TYPE": "BRICK\/MORTAR", "result_num": "0", "score": "100", "address_match": "1755 Scottsville Rd, Ste 3, Bowling Green, Kentucky, 42104", "Loc_name": "World", "Addr_type": "Subaddress", "User_fld": "", "latlong": "36.96646001514348,-86.43303303347577" }, "geometry": { "type": "Point", "coordinates": [ -86.433033033475766, 36.966460015143483 ] } },
{ "type": "Feature", "properties": { "NAME": "BARNEY'S BIG DAWG", "ABC START FOR LICENSE YEAR": null, "START DATE DATE": "05\/30\/2011", "ADDRESS": "103 OLD MORGANTOWN RD #D110", "CITY": "BOWLING GREEN", "ST": "KY", "ZIP": "42101", "COUNTRY": "UNITED STATES", "DAY PHONE": "815-579-1830", "DESCRIPTION '1": "HOT DOG VENDOR MOBILE STAND  *", "CUISINE": "AMERICAN", "OWNERSHIP": "PRIVATE", "TYPE": "FOOD TRUCK", "result_num": "0", "score": "100", "address_match": "103 Old Morgantown Rd, Bowling Green, Kentucky, 42101", "Loc_name": "World", "Addr_type": "PointAddress", "User_fld": "", "latlong": "36.987520007876455,-86.45914400297177" }, "geometry": { "type": "Point", "coordinates": [ -86.459144002971769, 36.987520007876455 ] } },
{ "type": "Feature", "properties": { "NAME": "BEHAR CAFÉ", "ABC START FOR LICENSE YEAR": null, "START DATE DATE": "03\/27\/2014", "ADDRESS": "728 OLD MORGANTOWN RD", "CITY": "BOWLING GREEN", "ST": "KY", "ZIP": "42101", "COUNTRY": "UNITED STATES", "DAY PHONE": "000-000-0000", "DESCRIPTION '1": "RESTAURANT", "CUISINE": "MEDITERRANEAN", "OWNERSHIP": "PRIVATE", "TYPE": "BRICK\/MORTAR", "result_num": "0", "score": "100", "address_match": "728 Old Morgantown Rd, Bowling Green, Kentucky, 42101", "Loc_name": "World", "Addr_type": "PointAddress", "User_fld": "", "latlong": "36.98956498270368,-86.46874999928696" }, "geometry": { "type": "Point", "coordinates": [ -86.468749999286956, 36.989564982703683 ] } },
{ "type": "Feature", "properties": { "NAME": "BEIJING TOKYO", "ABC START FOR LICENSE YEAR": "2013", "START DATE DATE": "01\/07\/2013", "ADDRESS": "2945 SCOTTSVILLE RD  STE 19", "CITY": "BOWLING GREEN", "ST": "KY", "ZIP": "42104", "COUNTRY": "UNITED STATES", "DAY PHONE": "270-796-6659", "DESCRIPTION '1": "RESTAURANT                   *", "CUISINE": "CHINESE\/JAPANESE", "OWNERSHIP": "PRIVATE", "TYPE": "BRICK\/MORTAR", "result_num": "0", "score": "100", "address_match": "2945 Scottsville Rd, Bowling Green, Kentucky, 42104", "Loc_name": "World", "Addr_type": "PointAddress", "User_fld": "", "latlong": "36.943578006207744,-86.42563298643829" }, "geometry": { "type": "Point", "coordinates": [ -86.425632986438288, 36.943578006207744 ] } },
{ "type": "Feature", "properties": { "NAME": "BIG TS BAR B CUE", "ABC START FOR LICENSE YEAR": null, "START DATE DATE": "05\/01\/2018", "ADDRESS": "1049 US 31W BY PASS", "CITY": "BOWLING GREEN", "ST": "KY", "ZIP": "42101", "COUNTRY": "UNITED STATES", "DAY PHONE": "270-784-3298", "DESCRIPTION '1": "MOBILE BARBECUE", "CUISINE": "BBQ", "OWNERSHIP": "PRIVATE", "TYPE": "FOOD TRUCK", "result_num": "0", "score": "98.54", "address_match": "1049 US-31W, Bowling Green, Kentucky, 42101", "Loc_name": "World", "Addr_type": "StreetAddress", "User_fld": "", "latlong": "36.983979744406604,-86.43616043983168" }, "geometry": { "type": "Point", "coordinates": [ -86.436160439831681, 36.983979744406604 ] } },
{ "type": "Feature", "properties": { "NAME": "THE BIKE RACK BISTRO ", "ABC START FOR LICENSE YEAR": null, "START DATE DATE": "04\/30\/2016", "ADDRESS": "855 BROADWAY AVE", "CITY": "BOWLING GREEN", "ST": "KY", "ZIP": "42101", "COUNTRY": "UNITED STATES", "DAY PHONE": "270-936-7575", "DESCRIPTION '1": "RESTAURANT", "CUISINE": "AMERICAN", "OWNERSHIP": "PRIVATE", "TYPE": "BRICK\/MORTAR", "result_num": "0", "score": "100", "address_match": "855 Broadway Ave, Bowling Green, Kentucky, 42101", "Loc_name": "World", "Addr_type": "PointAddress", "User_fld": "", "latlong": "36.984701006200495,-86.44094102384567" }, "geometry": { "type": "Point", "coordinates": [ -86.440941023845667, 36.984701006200495 ] } },
{ "type": "Feature", "properties": { "NAME": "THE BISTRO ", "ABC START FOR LICENSE YEAR": "2008", "START DATE DATE": "11\/21\/2008", "ADDRESS": "1129 COLLEGE STREET", "CITY": "BOWLING GREEN", "ST": "KY", "ZIP": "42101", "COUNTRY": "UNITED STATES", "DAY PHONE": "270-392-0421", "DESCRIPTION '1": "RESTAURANT", "CUISINE": "ITALIAN\/AMERICAN", "OWNERSHIP": "PRIVATE", "TYPE": "BRICK\/MORTAR", "result_num": "0", "score": "100", "address_match": "1129 College St, Bowling Green, Kentucky, 42101", "Loc_name": "World", "Addr_type": "PointAddress", "User_fld": "", "latlong": "36.99182700691364,-86.4451980248304" }, "geometry": { "type": "Point", "coordinates": [ -86.445198024830404, 36.991827006913638 ] } },
{ "type": "Feature", "properties": { "NAME": "BOBA LOUNGE & CAFÉ", "ABC START FOR LICENSE YEAR": null, "START DATE DATE": "07\/28\/2017", "ADDRESS": "312 OLD MORGANTOWN RD", "CITY": "BOWLING GREEN", "ST": "KY", "ZIP": "42101", "COUNTRY": "UNITED STATES", "DAY PHONE": "270-261-6110", "DESCRIPTION '1": "DELI", "CUISINE": "ASIAN FUSION", "OWNERSHIP": "PRIVATE", "TYPE": "BRICK\/MORTAR", "result_num": "0", "score": "100", "address_match": "312 Old Morgantown Rd, Bowling Green, Kentucky, 42101", "Loc_name": "World", "Addr_type": "PointAddress", "User_fld": "", "latlong": "36.988689995831194,-86.46046398508383" }, "geometry": { "type": "Point", "coordinates": [ -86.460463985083834, 36.988689995831194 ] } },
{ "type": "Feature", "properties": { "NAME": "BOJANGLES", "ABC START FOR LICENSE YEAR": null, "START DATE DATE": "07\/01\/2016", "ADDRESS": "133 THREE SPRINGS ROAD", "CITY": "BOWLING GREEN", "ST": "KY", "ZIP": "42104", "COUNTRY": "UNITED STATES", "DAY PHONE": "704-813-3203", "DESCRIPTION '1": "RESTAURANT", "CUISINE": "AMERICAN", "OWNERSHIP": "PRIVATE", "TYPE": "BRICK\/MORTAR", "result_num": "0", "score": "100", "address_match": "133 Three Springs Rd, Bowling Green, Kentucky, 42104", "Loc_name": "World", "Addr_type": "PointAddress", "User_fld": "", "latlong": "36.93984499990002,-86.42193497457632" }, "geometry": { "type": "Point", "coordinates": [ -86.421934974576317, 36.939844999900018 ] } },
{ "type": "Feature", "properties": { "NAME": "BREW CO. UNDERGROUND", "ABC START FOR LICENSE YEAR": "2019", "START DATE DATE": "03\/01\/2019", "ADDRESS": "423 PARK ROW AVE", "CITY": "BOWLING GREEN", "ST": "KY", "ZIP": "42101", "COUNTRY": "UNITED STATES", "DAY PHONE": "606-306-1771", "DESCRIPTION '1": "BAR", "CUISINE": "BAR", "OWNERSHIP": "PRIVATE", "TYPE": "BRICK\/MORTAR", "result_num": "0", "score": "99.23", "address_match": "423 Park Row, Bowling Green, Kentucky, 42101", "Loc_name": "World", "Addr_type": "PointAddress", "User_fld": "", "latlong": "36.99288798821759,-86.44186797851783" }, "geometry": { "type": "Point", "coordinates": [ -86.441867978517834, 36.992887988217589 ] } },
{ "type": "Feature", "properties": { "NAME": "CABRERAS MEXICAN BAR & GRILL", "ABC START FOR LICENSE YEAR": "2016", "START DATE DATE": "12\/06\/2016", "ADDRESS": "2225 RUSSELLVILLE RD", "CITY": "BOWLING GREEN", "ST": "KY", "ZIP": "42101", "COUNTRY": "UNITED STATES", "DAY PHONE": "270-843-4145", "DESCRIPTION '1": "MEXICAN RESTAURANT", "CUISINE": "MEXICAN", "OWNERSHIP": "PRIVATE", "TYPE": "BRICK\/MORTAR", "result_num": "0", "score": "100", "address_match": "2225 Russellville Rd, Bowling Green, Kentucky, 42101", "Loc_name": "World", "Addr_type": "PointAddress", "User_fld": "", "latlong": "36.97213401876955,-86.47708798128976" }, "geometry": { "type": "Point", "coordinates": [ -86.477087981289756, 36.972134018769552 ] } },
{ "type": "Feature", "properties": { "NAME": "CAKE BG", "ABC START FOR LICENSE YEAR": null, "START DATE DATE": "11\/01\/2016", "ADDRESS": "600 3A US 31W BYPASS", "CITY": "BOWLING GREEN", "ST": "KY", "ZIP": "42101", "COUNTRY": "UNITED STATES", "DAY PHONE": "000-000-0000", "DESCRIPTION '1": "BAKERY", "CUISINE": "BAKERY", "OWNERSHIP": "PRIVATE", "TYPE": "BRICK\/MORTAR", "result_num": "0", "score": "98.53", "address_match": "600 Us 31w Byp, Bowling Green, Kentucky, 42101", "Loc_name": "World", "Addr_type": "PointAddress", "User_fld": "", "latlong": "36.987933990074296,-86.42785896846459" }, "geometry": { "type": "Point", "coordinates": [ -86.427858968464591, 36.987933990074296 ] } },
{ "type": "Feature", "properties": { "NAME": "THE CAKE SHOP LLC ", "ABC START FOR LICENSE YEAR": null, "START DATE DATE": "12\/15\/2017", "ADDRESS": "2708 SCOTTSVILLE RD STE B", "CITY": "BOWLING GREEN", "ST": "KY", "ZIP": "42101", "COUNTRY": "UNITED STATES", "DAY PHONE": "270-256-4450", "DESCRIPTION '1": "BAKERY", "CUISINE": "BAKERY", "OWNERSHIP": "PRIVATE", "TYPE": "BRICK\/MORTAR", "result_num": "0", "score": "100", "address_match": "2708 Scottsville Rd, Ste B, Bowling Green, Kentucky, 42104", "Loc_name": "World", "Addr_type": "Subaddress", "User_fld": "", "latlong": "36.948438001306926,-86.42343600579697" }, "geometry": { "type": "Point", "coordinates": [ -86.423436005796972, 36.948438001306926 ] } },
{ "type": "Feature", "properties": { "NAME": "CASSADY'S REAL SMOKE BBQ", "ABC START FOR LICENSE YEAR": null, "START DATE DATE": "01\/01\/2017", "ADDRESS": "0 CITYWIDE", "CITY": "BOWLING GREEN", "ST": "KY", "ZIP": "42101", "COUNTRY": "UNITED STATES", "DAY PHONE": "270-799-7184", "DESCRIPTION '1": "FOOD TRUCK", "CUISINE": "BBQ", "OWNERSHIP": "PRIVATE", "TYPE": "FOOD TRUCK", "result_num": "0", "score": "89.71", "address_match": "Bowling Green, Kentucky", "Loc_name": "World", "Addr_type": "Locality", "User_fld": "", "latlong": "36.994620000000054,-86.44557999999995" }, "geometry": { "type": "Point", "coordinates": [ -86.44558, 36.99462 ] } },
{ "type": "Feature", "properties": { "NAME": "CHANEY'S DAIRY BARN", "ABC START FOR LICENSE YEAR": null, "START DATE DATE": "06\/25\/1905", "ADDRESS": "9191 NASHVILLE RD", "CITY": "BOWLING GREEN", "ST": "KY", "ZIP": "42101", "COUNTRY": "UNITED STATES", "DAY PHONE": "270-843-5567", "DESCRIPTION '1": "ICE CREAM PARLOR & SANDWICH SPOT", "CUISINE": "ICE CREAM", "OWNERSHIP": "PRIVATE", "TYPE": "BRICK\/MORTAR", "result_num": "0", "score": "100", "address_match": "9191 Nashville Rd, Bowling Green, Kentucky, 42101", "Loc_name": "World", "Addr_type": "PointAddress", "User_fld": "", "latlong": "36.88441698294339,-86.52583402885396" }, "geometry": { "type": "Point", "coordinates": [ -86.525834028853964, 36.884416982943392 ] } },
{ "type": "Feature", "properties": { "NAME": "CHEERS LIQUOR & WINE", "ABC START FOR LICENSE YEAR": "2018", "START DATE DATE": "12\/05\/2018", "ADDRESS": "150 SCOTTYS WAY  SUITE B", "CITY": "BOWLING GREEN", "ST": "KY", "ZIP": "42101", "COUNTRY": "UNITED STATES", "DAY PHONE": "270-782-8577", "DESCRIPTION '1": "CONVENIENCE STORE", "CUISINE": "LIQUOR", "OWNERSHIP": "PRIVATE", "TYPE": "BRICK\/MORTAR", "result_num": "0", "score": "100", "address_match": "150 Scottys Way, Bowling Green, Kentucky, 42101", "Loc_name": "World", "Addr_type": "PointAddress", "User_fld": "", "latlong": "37.03477399285639,-86.34035500061715" }, "geometry": { "type": "Point", "coordinates": [ -86.340355000617151, 37.034773992856387 ] } },
{ "type": "Feature", "properties": { "NAME": "THE CHEESE WAGON ", "ABC START FOR LICENSE YEAR": null, "START DATE DATE": "09\/01\/2017", "ADDRESS": "0 CITYWIDE", "CITY": "BOWLING GREEN", "ST": "KY", "ZIP": "42101", "COUNTRY": "UNITED STATES", "DAY PHONE": "270-535-9347", "DESCRIPTION '1": "FOOD TRUCK\/CATERING", "CUISINE": "AMERICAN", "OWNERSHIP": "PRIVATE", "TYPE": "FOOD TRUCK", "result_num": "0", "score": "89.71", "address_match": "Bowling Green, Kentucky", "Loc_name": "World", "Addr_type": "Locality", "User_fld": "", "latlong": "36.994620000000054,-86.44557999999995" }, "geometry": { "type": "Point", "coordinates": [ -86.44558, 36.99462 ] } },
{ "type": "Feature", "properties": { "NAME": "CHICKADEE'S LLC", "ABC START FOR LICENSE YEAR": null, "START DATE DATE": "06\/01\/2011", "ADDRESS": "1200 B SMALLHOUSE RD", "CITY": "BOWLING GREEN", "ST": "KY", "ZIP": "42104", "COUNTRY": "UNITED STATES", "DAY PHONE": "270-781-8665", "DESCRIPTION '1": "RESTAURANT", "CUISINE": "AMERICAN", "OWNERSHIP": "PRIVATE", "TYPE": "BRICK\/MORTAR", "result_num": "0", "score": "98.77", "address_match": "1200 Smallhouse Rd, Bowling Green, Kentucky, 42104", "Loc_name": "World", "Addr_type": "PointAddress", "User_fld": "", "latlong": "36.97841399208569,-86.4386179793806" }, "geometry": { "type": "Point", "coordinates": [ -86.438617979380595, 36.978413992085692 ] } },
{ "type": "Feature", "properties": { "NAME": "CHINA EXPRESS", "ABC START FOR LICENSE YEAR": null, "START DATE DATE": "09\/01\/2011", "ADDRESS": "600 US 31W BY PASS  UNIT 4", "CITY": "BOWLING GREEN", "ST": "KY", "ZIP": "42101", "COUNTRY": "UNITED STATES", "DAY PHONE": "270-746-0010", "DESCRIPTION '1": "RESTAURANT", "CUISINE": "CHINESE", "OWNERSHIP": "PRIVATE", "TYPE": "BRICK\/MORTAR", "result_num": "0", "score": "98.67", "address_match": "600 US-31W, Bowling Green, Kentucky, 42101", "Loc_name": "World", "Addr_type": "StreetAddress", "User_fld": "", "latlong": "37.003141250113366,-86.43129851207351" }, "geometry": { "type": "Point", "coordinates": [ -86.431298512073511, 37.003141250113366 ] } },
{ "type": "Feature", "properties": { "NAME": "CHOCOLATE CITY", "ABC START FOR LICENSE YEAR": "2018", "START DATE DATE": "05\/03\/2018", "ADDRESS": "421 SCOTT ST", "CITY": "BOWLING GREEN", "ST": "KY", "ZIP": "42101", "COUNTRY": "UNITED STATES", "DAY PHONE": "270-779-0792", "DESCRIPTION '1": "BAR ALCOHOL BY THE DRINK", "CUISINE": "BAR", "OWNERSHIP": "PRIVATE", "TYPE": "BRICK\/MORTAR", "result_num": "0", "score": "100", "address_match": "421 Scott St, Bowling Green, Kentucky, 42101", "Loc_name": "World", "Addr_type": "StreetAddress", "User_fld": "", "latlong": "37.004606199286016,-86.4433601831729" }, "geometry": { "type": "Point", "coordinates": [ -86.443360183172899, 37.004606199286016 ] } },
{ "type": "Feature", "properties": { "NAME": "CHUCK'S HARTLAND LIQUORS", "ABC START FOR LICENSE YEAR": "2015", "START DATE DATE": "10\/01\/2015", "ADDRESS": "1640 SCOTTSVILLE RD STE 700", "CITY": "BOWLING GREEN", "ST": "KY", "ZIP": "42103", "COUNTRY": "UNITED STATES", "DAY PHONE": "270-393-7077", "DESCRIPTION '1": "LIQUOR STORE", "CUISINE": "LIQUOR", "OWNERSHIP": "PRIVATE", "TYPE": "BRICK\/MORTAR", "result_num": "0", "score": "100", "address_match": "1640 Scottsville Rd, Ste 700, Bowling Green, Kentucky, 42104", "Loc_name": "World", "Addr_type": "Subaddress", "User_fld": "", "latlong": "36.971380988588265,-86.43331500069858" }, "geometry": { "type": "Point", "coordinates": [ -86.433315000698585, 36.971380988588265 ] } },
{ "type": "Feature", "properties": { "NAME": "CLIFFS OF MOHER IRISH PUB", "ABC START FOR LICENSE YEAR": "2017", "START DATE DATE": "08\/01\/2017", "ADDRESS": "410 E MAIN ST", "CITY": "BOWLING GREEN", "ST": "KY", "ZIP": "42101", "COUNTRY": "UNITED STATES", "DAY PHONE": "270-780-6350", "DESCRIPTION '1": "BAR", "CUISINE": "BAR", "OWNERSHIP": "PRIVATE", "TYPE": "BRICK\/MORTAR", "result_num": "0", "score": "98.31", "address_match": "410 E Main Ave, Bowling Green, Kentucky, 42101", "Loc_name": "World", "Addr_type": "PointAddress", "User_fld": "", "latlong": "36.99375798785768,-86.4410899702651" }, "geometry": { "type": "Point", "coordinates": [ -86.441089970265097, 36.993757987857677 ] } },
{ "type": "Feature", "properties": { "NAME": "CLUB 110", "ABC START FOR LICENSE YEAR": "2009", "START DATE DATE": "10\/01\/2009", "ADDRESS": "645 B PEARL ST", "CITY": "BOWLING GREEN", "ST": "KY", "ZIP": "42101", "COUNTRY": "UNITED STATES", "DAY PHONE": "000-000-0000", "DESCRIPTION '1": "BAR", "CUISINE": "BAR", "OWNERSHIP": "PRIVATE", "TYPE": "BRICK\/MORTAR", "result_num": "0", "score": "98.73", "address_match": "645 Pearl St, Bowling Green, Kentucky, 42101", "Loc_name": "World", "Addr_type": "PointAddress", "User_fld": "", "latlong": "37.01025001099811,-86.45028299021082" }, "geometry": { "type": "Point", "coordinates": [ -86.450282990210823, 37.010250010998107 ] } },
{ "type": "Feature", "properties": { "NAME": "COCOMO CONFECTIONS LLC", "ABC START FOR LICENSE YEAR": null, "START DATE DATE": "06\/16\/2014", "ADDRESS": "1945 A2 SCOTTSVILLE ROAD", "CITY": "BOWLING GREEN", "ST": "KY", "ZIP": "42104", "COUNTRY": "UNITED STATES", "DAY PHONE": "270-904-0367", "DESCRIPTION '1": "RESTAURANT", "CUISINE": "BAKERY", "OWNERSHIP": "PRIVATE", "TYPE": "BRICK\/MORTAR", "result_num": "0", "score": "98.58", "address_match": "1945 Scottsville Rd, Bowling Green, Kentucky, 42104", "Loc_name": "World", "Addr_type": "PointAddress", "User_fld": "", "latlong": "36.96279699772727,-86.43165203110857" }, "geometry": { "type": "Point", "coordinates": [ -86.43165203110857, 36.962796997727267 ] } },
{ "type": "Feature", "properties": { "NAME": "COFFEE AND EGGS LLC", "ABC START FOR LICENSE YEAR": "2018", "START DATE DATE": "09\/01\/2017", "ADDRESS": "2549 MT VICTOR LANE", "CITY": "BOWLING GREEN", "ST": "KY", "ZIP": "42103", "COUNTRY": "UNITED STATES", "DAY PHONE": "270-904-4970", "DESCRIPTION '1": "RESTAURANT", "CUISINE": "AMERICAN", "OWNERSHIP": "PRIVATE", "TYPE": "BRICK\/MORTAR", "result_num": "0", "score": "100", "address_match": "2549 Mt Victor Ln, Bowling Green, Kentucky, 42103", "Loc_name": "World", "Addr_type": "StreetAddress", "User_fld": "", "latlong": "36.97963629694929,-86.39578566491552" }, "geometry": { "type": "Point", "coordinates": [ -86.395785664915522, 36.979636296949288 ] } },
{ "type": "Feature", "properties": { "NAME": "CON CON'S", "ABC START FOR LICENSE YEAR": null, "START DATE DATE": "06\/26\/2009", "ADDRESS": "1924 RUSSELLVILLE RD", "CITY": "BOWLING GREEN", "ST": "KY", "ZIP": "42101", "COUNTRY": "UNITED STATES", "DAY PHONE": "270-282-6120", "DESCRIPTION '1": "RESTAURANT", "CUISINE": "AMERICAN", "OWNERSHIP": "PRIVATE", "TYPE": "BRICK\/MORTAR", "result_num": "0", "score": "100", "address_match": "1924 Russellville Rd, Bowling Green, Kentucky, 42101", "Loc_name": "World", "Addr_type": "PointAddress", "User_fld": "", "latlong": "36.978366005690006,-86.46844598765878" }, "geometry": { "type": "Point", "coordinates": [ -86.468445987658782, 36.978366005690006 ] } },
{ "type": "Feature", "properties": { "NAME": "COOKIE STORE", "ABC START FOR LICENSE YEAR": null, "START DATE DATE": "08\/01\/2008", "ADDRESS": "2625 SCOTTSVILLE RD", "CITY": "BOWLING GREEN", "ST": "KY", "ZIP": "42104", "COUNTRY": "UNITED STATES", "DAY PHONE": "270-842-3403", "DESCRIPTION '1": "RESTAURANT", "CUISINE": "BAKERY", "OWNERSHIP": "PRIVATE", "TYPE": "BRICK\/MORTAR", "result_num": "0", "score": "100", "address_match": "2625 Scottsville Rd, Bowling Green, Kentucky, 42104", "Loc_name": "World", "Addr_type": "PointAddress", "User_fld": "", "latlong": "36.94865999601254,-86.42798000314644" }, "geometry": { "type": "Point", "coordinates": [ -86.427980003146445, 36.948659996012537 ] } },
{ "type": "Feature", "properties": { "NAME": "CUE TIME COCKTAILS & BILLIARD", "ABC START FOR LICENSE YEAR": "2014", "START DATE DATE": "07\/01\/2014", "ADDRESS": "532 THREE SPRINGS RD", "CITY": "BOWLING GREEN", "ST": "KY", "ZIP": "42101", "COUNTRY": "UNITED STATES", "DAY PHONE": "270-782-3740", "DESCRIPTION '1": "BILLIARD HALL", "CUISINE": "BAR\/BILLIARD HALL", "OWNERSHIP": "PRIVATE", "TYPE": "BRICK\/MORTAR", "result_num": "0", "score": "100", "address_match": "532 Three Springs Rd, Bowling Green, Kentucky, 42104", "Loc_name": "World", "Addr_type": "PointAddress", "User_fld": "", "latlong": "36.93422401181154,-86.42131102570394" }, "geometry": { "type": "Point", "coordinates": [ -86.421311025703943, 36.934224011811537 ] } },
{ "type": "Feature", "properties": { "NAME": "CURTIS BBQ", "ABC START FOR LICENSE YEAR": null, "START DATE DATE": "01\/01\/2019", "ADDRESS": "CITYWIDE", "CITY": "BOWLING GREEN", "ST": "KY", "ZIP": "42104", "COUNTRY": "UNITED STATES", "DAY PHONE": "270-790-1603", "DESCRIPTION '1": "ROADSIDE BBQ", "CUISINE": "BBQ", "OWNERSHIP": "PRIVATE", "TYPE": "FOOD TRUCK", "result_num": "0", "score": "90.59", "address_match": "Bowling Green, Kentucky", "Loc_name": "World", "Addr_type": "Locality", "User_fld": "", "latlong": "36.994620000000054,-86.44557999999995" }, "geometry": { "type": "Point", "coordinates": [ -86.44558, 36.99462 ] } },
{ "type": "Feature", "properties": { "NAME": "DOLPHIE'S LOUNGE", "ABC START FOR LICENSE YEAR": "1998", "START DATE DATE": "09\/11\/1981", "ADDRESS": "COMFORT INN", "CITY": "BOWLING GREEN", "ST": "KY", "ZIP": "42103", "COUNTRY": "UNITED STATES", "DAY PHONE": "000-000-0000", "DESCRIPTION '1": "LOUNGE", "CUISINE": "BAR", "OWNERSHIP": "PRIVATE", "TYPE": "BRICK\/MORTAR", "result_num": "0", "score": "90", "address_match": "Comfort Rd, New York, 10004", "Loc_name": "World", "Addr_type": "StreetName", "User_fld": "", "latlong": "40.689483623917326,-74.01704550696941" }, "geometry": { "type": "Point", "coordinates": [ -74.01704550696941, 40.689483623917326 ] } },
{ "type": "Feature", "properties": { "NAME": "EL LIMONCITO", "ABC START FOR LICENSE YEAR": null, "START DATE DATE": "07\/15\/2016", "ADDRESS": "CITYWIDE LOCATIONS", "CITY": "BOWLING GREEN", "ST": "KY", "ZIP": "42101", "COUNTRY": "UNITED STATES", "DAY PHONE": "270-599-9851", "DESCRIPTION '1": "SHAVED ICE TRUCK CITYWIDE SALE", "CUISINE": "MEXICAN", "OWNERSHIP": "PRIVATE", "TYPE": "BRICK\/MORTAR", "result_num": "0", "score": "84.19", "address_match": "Bowling Green, Kentucky", "Loc_name": "World", "Addr_type": "Locality", "User_fld": "", "latlong": "36.994620000000054,-86.44557999999995" }, "geometry": { "type": "Point", "coordinates": [ -86.44558, 36.99462 ] } },
{ "type": "Feature", "properties": { "NAME": "EL MAGUEY MEXICAN RESTAURANT", "ABC START FOR LICENSE YEAR": "2015", "START DATE DATE": "07\/01\/2015", "ADDRESS": "4700 SCOTTSVILLE RD", "CITY": "BOWLING GREEN", "ST": "KY", "ZIP": "42101", "COUNTRY": "UNITED STATES", "DAY PHONE": "812-371-2247", "DESCRIPTION '1": "RESTAURANT", "CUISINE": "MEXICAN", "OWNERSHIP": "PRIVATE", "TYPE": "BRICK\/MORTAR", "result_num": "0", "score": "100", "address_match": "4700 Scottsville Rd, Bowling Green, Kentucky, 42104", "Loc_name": "World", "Addr_type": "StreetAddress", "User_fld": "", "latlong": "36.93145432323149,-86.4147095214001" }, "geometry": { "type": "Point", "coordinates": [ -86.414709521400098, 36.931454323231492 ] } },
{ "type": "Feature", "properties": { "NAME": "EMILY'S NEW ORLEANS STYLE SNOW", "ABC START FOR LICENSE YEAR": null, "START DATE DATE": "05\/20\/2011", "ADDRESS": "1589 US 31W BYPASS", "CITY": "BOWLING GREEN", "ST": "KY", "ZIP": "42101", "COUNTRY": "UNITED STATES", "DAY PHONE": "810-845-7466", "DESCRIPTION '1": "SNOWBALLS", "CUISINE": "SHAVED ICE", "OWNERSHIP": "PRIVATE", "TYPE": "FOOD TRUCK", "result_num": "0", "score": "98.29", "address_match": "1589 US-31W, Bowling Green, Kentucky, 42101", "Loc_name": "World", "Addr_type": "StreetAddress", "User_fld": "", "latlong": "36.98003435448046,-86.44836747349375" }, "geometry": { "type": "Point", "coordinates": [ -86.448367473493747, 36.980034354480459 ] } },
{ "type": "Feature", "properties": { "NAME": "ENTOURAGE TAPAS BAR &LOUNGE LL", "ABC START FOR LICENSE YEAR": "2008", "START DATE DATE": "01\/01\/2009", "ADDRESS": "935 COLLEGE ST", "CITY": "BOWLING GREEN", "ST": "KY", "ZIP": "42101", "COUNTRY": "UNITED STATES", "DAY PHONE": "270-320-4991", "DESCRIPTION '1": "RESTAURANT", "CUISINE": "BAR", "OWNERSHIP": "PRIVATE", "TYPE": "BRICK\/MORTAR", "result_num": "0", "score": "100", "address_match": "935 College St, Bowling Green, Kentucky, 42101", "Loc_name": "World", "Addr_type": "PointAddress", "User_fld": "", "latlong": "36.99342099344051,-86.4427260339459" }, "geometry": { "type": "Point", "coordinates": [ -86.442726033945902, 36.993420993440509 ] } },
{ "type": "Feature", "properties": { "NAME": "GARCIA'S RESTAURANT AND GRILL", "ABC START FOR LICENSE YEAR": "2005", "START DATE DATE": "10\/10\/2005", "ADDRESS": "1689 CAMPBELL LN STE 101", "CITY": "BOWLING GREEN", "ST": "KY", "ZIP": "42104", "COUNTRY": "UNITED STATES", "DAY PHONE": "270-842-6100", "DESCRIPTION '1": "MEXICAN FOOD                 *", "CUISINE": "TEX-MEX", "OWNERSHIP": "PRIVATE", "TYPE": "BRICK\/MORTAR", "result_num": "0", "score": "100", "address_match": "1689 Campbell Ln, Bowling Green, Kentucky, 42104", "Loc_name": "World", "Addr_type": "PointAddress", "User_fld": "", "latlong": "36.950986016053236,-86.43537300938524" }, "geometry": { "type": "Point", "coordinates": [ -86.435373009385245, 36.950986016053236 ] } },
{ "type": "Feature", "properties": { "NAME": "GENO'S ITALIAN DELI", "ABC START FOR LICENSE YEAR": null, "START DATE DATE": "09\/28\/2010", "ADDRESS": "1751 SCOTTSVILLE RD", "CITY": "BOWLING GREEN", "ST": "KY", "ZIP": "42101", "COUNTRY": "UNITED STATES", "DAY PHONE": "270-904-3676", "DESCRIPTION '1": "DELI", "CUISINE": "ITALIAN", "OWNERSHIP": "PRIVATE", "TYPE": "BRICK\/MORTAR", "result_num": "0", "score": "100", "address_match": "1751 Scottsville Rd, Bowling Green, Kentucky, 42104", "Loc_name": "World", "Addr_type": "PointAddress", "User_fld": "", "latlong": "36.96665401429247,-86.4350339614018" }, "geometry": { "type": "Point", "coordinates": [ -86.4350339614018, 36.966654014292473 ] } },
{ "type": "Feature", "properties": { "NAME": "GREAT AMERICAN DONUT SHOP", "ABC START FOR LICENSE YEAR": null, "START DATE DATE": "04\/07\/1989", "ADDRESS": "901 31W BYPASS", "CITY": "BOWLING GREEN", "ST": "KY", "ZIP": "42101", "COUNTRY": "UNITED STATES", "DAY PHONE": "270-842-7155", "DESCRIPTION '1": "DONUT SHOP", "CUISINE": "DONUTS", "OWNERSHIP": "PRIVATE", "TYPE": "BRICK\/MORTAR", "result_num": "0", "score": "93.88", "address_match": "901 US 31W-Byp, Bowling Green, Kentucky, 42101", "Loc_name": "World", "Addr_type": "StreetAddress", "User_fld": "", "latlong": "36.98480825319032,-86.4335767817253" }, "geometry": { "type": "Point", "coordinates": [ -86.433576781725293, 36.984808253190323 ] } },
{ "type": "Feature", "properties": { "NAME": "GREAT WALL", "ABC START FOR LICENSE YEAR": null, "START DATE DATE": "02\/13\/2013", "ADDRESS": "2710 NASHVILLE RD STE 112", "CITY": "BOWLING GREEN", "ST": "KY", "ZIP": "42101", "COUNTRY": "UNITED STATES", "DAY PHONE": "270-393-9922", "DESCRIPTION '1": "RESTAURANT", "CUISINE": "CHINESE", "OWNERSHIP": "PRIVATE", "TYPE": "BRICK\/MORTAR", "result_num": "0", "score": "100", "address_match": "2710 Nashville Rd, Ste 112, Bowling Green, Kentucky, 42101", "Loc_name": "World", "Addr_type": "Subaddress", "User_fld": "", "latlong": "36.95962700385583,-86.46845101680069" }, "geometry": { "type": "Point", "coordinates": [ -86.468451016800685, 36.959627003855829 ] } },
{ "type": "Feature", "properties": { "NAME": "GRIDDLE ME THIS", "ABC START FOR LICENSE YEAR": null, "START DATE DATE": "04\/15\/2018", "ADDRESS": "0 CITYWIDE", "CITY": "BOWLING GREEN", "ST": "KY", "ZIP": "42101", "COUNTRY": "UNITED STATES", "DAY PHONE": "270-792-2294", "DESCRIPTION '1": "FOOD TRUCK", "CUISINE": "AMERICAN", "OWNERSHIP": "PRIVATE", "TYPE": "FOOD TRUCK", "result_num": "0", "score": "89.71", "address_match": "Bowling Green, Kentucky", "Loc_name": "World", "Addr_type": "Locality", "User_fld": "", "latlong": "36.994620000000054,-86.44557999999995" }, "geometry": { "type": "Point", "coordinates": [ -86.44558, 36.99462 ] } },
{ "type": "Feature", "properties": { "NAME": "GRIFFS DELI", "ABC START FOR LICENSE YEAR": null, "START DATE DATE": "04\/06\/2009", "ADDRESS": "1640 100 SCOTTSVILLE RD", "CITY": "BOWLING GREEN", "ST": "KY", "ZIP": "42101", "COUNTRY": "UNITED STATES", "DAY PHONE": "000-000-0000", "DESCRIPTION '1": "RESTAURANT", "CUISINE": "AMERICAN", "OWNERSHIP": "PRIVATE", "TYPE": "BRICK\/MORTAR", "result_num": "0", "score": "94.67", "address_match": "Scottsville Rd, Bowling Green, Kentucky, 42104", "Loc_name": "World", "Addr_type": "StreetName", "User_fld": "", "latlong": "36.919224321993056,-86.40843314816446" }, "geometry": { "type": "Point", "coordinates": [ -86.408433148164463, 36.919224321993056 ] } },
{ "type": "Feature", "properties": { "NAME": "HIBACHI GRILL & SUPREME BUFFET", "ABC START FOR LICENSE YEAR": null, "START DATE DATE": "07\/01\/2017", "ADDRESS": "600 1A US 31W BYPASS", "CITY": "BOWLING GREEN", "ST": "KY", "ZIP": "42101", "COUNTRY": "UNITED STATES", "DAY PHONE": "270-904-6886", "DESCRIPTION '1": "RESTAURANT", "CUISINE": "JAPANESE", "OWNERSHIP": "PRIVATE", "TYPE": "BRICK\/MORTAR", "result_num": "0", "score": "98.53", "address_match": "600 Us 31w Byp, Bowling Green, Kentucky, 42101", "Loc_name": "World", "Addr_type": "PointAddress", "User_fld": "", "latlong": "36.987933990074296,-86.42785896846459" }, "geometry": { "type": "Point", "coordinates": [ -86.427858968464591, 36.987933990074296 ] } },
{ "type": "Feature", "properties": { "NAME": "HICKORY & OAK", "ABC START FOR LICENSE YEAR": "2018", "START DATE DATE": "06\/01\/2018", "ADDRESS": "705 STATE ST", "CITY": "BOWLING GREEN", "ST": "KY", "ZIP": "42101", "COUNTRY": "UNITED STATES", "DAY PHONE": "000-000-0000", "DESCRIPTION '1": "RESTAURANT", "CUISINE": "STEAKHOUSE", "OWNERSHIP": "PRIVATE", "TYPE": "BRICK\/MORTAR", "result_num": "0", "score": "100", "address_match": "705 State St, Bowling Green, Kentucky, 42101", "Loc_name": "World", "Addr_type": "PointAddress", "User_fld": "", "latlong": "36.994334998072276,-86.43887798601709" }, "geometry": { "type": "Point", "coordinates": [ -86.43887798601709, 36.994334998072276 ] } },
{ "type": "Feature", "properties": { "NAME": "HILLIGANS", "ABC START FOR LICENSE YEAR": "2016", "START DATE DATE": "04\/01\/2016", "ADDRESS": "1265 COLLEGE STREET", "CITY": "BOWLING GREEN", "ST": "KY", "ZIP": "42101", "COUNTRY": "UNITED STATES", "DAY PHONE": "270-282-2227", "DESCRIPTION '1": "RESTAURANT AND BAR", "CUISINE": "AMERICAN", "OWNERSHIP": "PRIVATE", "TYPE": "BRICK\/MORTAR", "result_num": "0", "score": "100", "address_match": "1265 College St, Bowling Green, Kentucky, 42101", "Loc_name": "World", "Addr_type": "PointAddress", "User_fld": "", "latlong": "36.99002799903509,-86.44793899098781" }, "geometry": { "type": "Point", "coordinates": [ -86.447938990987808, 36.990027999035092 ] } },
{ "type": "Feature", "properties": { "NAME": "LAURA'S STOCKYARD CAFÉ 1", "ABC START FOR LICENSE YEAR": "2006", "START DATE DATE": "08\/01\/2005", "ADDRESS": "4350 LOUISVILLE RD", "CITY": "BOWLING GREEN", "ST": "KY", "ZIP": "42101", "COUNTRY": "UNITED STATES", "DAY PHONE": "270-246-0367", "DESCRIPTION '1": "RESTAURANT                  *", "CUISINE": "AMERICAN", "OWNERSHIP": "PRIVATE", "TYPE": "BRICK\/MORTAR", "result_num": "0", "score": "100", "address_match": "4350 Louisville Rd, Bowling Green, Kentucky, 42101", "Loc_name": "World", "Addr_type": "StreetAddress", "User_fld": "", "latlong": "37.015654489959964,-86.37685691025145" }, "geometry": { "type": "Point", "coordinates": [ -86.376856910251448, 37.015654489959964 ] } },
{ "type": "Feature", "properties": { "NAME": "I-65 LIQUORS OF B G LLC", "ABC START FOR LICENSE YEAR": "2008", "START DATE DATE": "11\/01\/2007", "ADDRESS": "101 CHERRY FARM LN", "CITY": "BOWLING GREEN", "ST": "KY", "ZIP": "42103", "COUNTRY": "UNITED STATES", "DAY PHONE": "270-782-1165", "DESCRIPTION '1": "LIQUOR STORE & DELI          *", "CUISINE": "LIQUOR", "OWNERSHIP": "PRIVATE", "TYPE": "BRICK\/MORTAR", "result_num": "0", "score": "100", "address_match": "101 Cherry Farm Ln, Bowling Green, Kentucky, 42103", "Loc_name": "World", "Addr_type": "PointAddress", "User_fld": "", "latlong": "36.9299189825216,-86.41247599684283" }, "geometry": { "type": "Point", "coordinates": [ -86.412475996842829, 36.929918982521599 ] } },
{ "type": "Feature", "properties": { "NAME": "INDIA OVEN RESTAURANT", "ABC START FOR LICENSE YEAR": "2016", "START DATE DATE": "12\/01\/2016", "ADDRESS": "1755 SCOTTSVILLE RD #2,3,4", "CITY": "BOWLING GREEN", "ST": "KY", "ZIP": "42104", "COUNTRY": "UNITED STATES", "DAY PHONE": "859-979-0651", "DESCRIPTION '1": "INDIAN RESTAURANT", "CUISINE": "INDIAN ", "OWNERSHIP": "PRIVATE", "TYPE": "BRICK\/MORTAR", "result_num": "0", "score": "99.91", "address_match": "1755 Scottsville Rd, Ste 2, Bowling Green, Kentucky, 42104", "Loc_name": "World", "Addr_type": "Subaddress", "User_fld": "", "latlong": "36.96646001514348,-86.43303303347577" }, "geometry": { "type": "Point", "coordinates": [ -86.433033033475766, 36.966460015143483 ] } },
{ "type": "Feature", "properties": { "NAME": "KELLY GREEN'S PUB", "ABC START FOR LICENSE YEAR": null, "START DATE DATE": "07\/01\/1999", "ADDRESS": "425 PARK ROW", "CITY": "BOWLING GREEN", "ST": "KY", "ZIP": "42101", "COUNTRY": "UNITED STATES", "DAY PHONE": "270-781-8888", "DESCRIPTION '1": "RESTAURANT & CLUB", "CUISINE": "BAR", "OWNERSHIP": "PRIVATE", "TYPE": "BRICK\/MORTAR", "result_num": "0", "score": "100", "address_match": "425 Park Row, Bowling Green, Kentucky, 42101", "Loc_name": "World", "Addr_type": "StreetAddress", "User_fld": "", "latlong": "36.99313698170345,-86.4417794674467" }, "geometry": { "type": "Point", "coordinates": [ -86.441779467446693, 36.993136981703451 ] } },
{ "type": "Feature", "properties": { "NAME": "THE KETTLE QUEEN ", "ABC START FOR LICENSE YEAR": null, "START DATE DATE": "07\/05\/2018", "ADDRESS": "CITYWIDE", "CITY": "BOWLING GREEN", "ST": "KY", "ZIP": "42101", "COUNTRY": "UNITED STATES", "DAY PHONE": "270-991-2806", "DESCRIPTION '1": "KETTLE CORN MOBILE", "CUISINE": "POPCORN", "OWNERSHIP": "PRIVATE", "TYPE": "FOOD TRUCK", "result_num": "0", "score": "90.59", "address_match": "Bowling Green, Kentucky", "Loc_name": "World", "Addr_type": "Locality", "User_fld": "", "latlong": "36.994620000000054,-86.44557999999995" }, "geometry": { "type": "Point", "coordinates": [ -86.44558, 36.99462 ] } },
{ "type": "Feature", "properties": { "NAME": "KINNARNEY'S DRIVE IN LIQUORS", "ABC START FOR LICENSE YEAR": "2014", "START DATE DATE": "08\/11\/2014", "ADDRESS": "711 BOATLANDING RD", "CITY": "BOWLING GREEN", "ST": "KY", "ZIP": "42101", "COUNTRY": "UNITED STATES", "DAY PHONE": "270-893-4334", "DESCRIPTION '1": "PACKAGE STORE", "CUISINE": "LIQUOR", "OWNERSHIP": "PRIVATE", "TYPE": "BRICK\/MORTAR", "result_num": "0", "score": "100", "address_match": "711 Boatlanding Rd, Bowling Green, Kentucky, 42101", "Loc_name": "World", "Addr_type": "PointAddress", "User_fld": "", "latlong": "37.00881000003257,-86.44296500200544" }, "geometry": { "type": "Point", "coordinates": [ -86.442965002005437, 37.008810000032568 ] } },
{ "type": "Feature", "properties": { "NAME": "KOUNTRY FARM KAFE", "ABC START FOR LICENSE YEAR": null, "START DATE DATE": "09\/12\/2018", "ADDRESS": "1567 RIVER ST #A", "CITY": "BOWLING GREEN", "ST": "KY", "ZIP": "42101", "COUNTRY": "UNITED STATES", "DAY PHONE": "270-421-4992", "DESCRIPTION '1": "RESTAURANT", "CUISINE": "AMERICAN", "OWNERSHIP": "PRIVATE", "TYPE": "BRICK\/MORTAR", "result_num": "0", "score": "100", "address_match": "1567 River St, Bowling Green, Kentucky, 42101", "Loc_name": "World", "Addr_type": "PointAddress", "User_fld": "", "latlong": "37.0046770093053,-86.42212700397806" }, "geometry": { "type": "Point", "coordinates": [ -86.422127003978062, 37.004677009305297 ] } },
{ "type": "Feature", "properties": { "NAME": "LA PLACITA", "ABC START FOR LICENSE YEAR": "2015", "START DATE DATE": "07\/01\/2015", "ADDRESS": "830 OLD MORGANTOWN RD", "CITY": "BOWLING GREEN", "ST": "KY", "ZIP": "42101", "COUNTRY": "UNITED STATES", "DAY PHONE": "270-438-2625", "DESCRIPTION '1": "RESTAURANT", "CUISINE": "MEXICAN", "OWNERSHIP": "PRIVATE", "TYPE": "BRICK\/MORTAR", "result_num": "0", "score": "100", "address_match": "830 Old Morgantown Rd, Bowling Green, Kentucky, 42101", "Loc_name": "World", "Addr_type": "PointAddress", "User_fld": "", "latlong": "36.98983898711849,-86.47172699983778" }, "geometry": { "type": "Point", "coordinates": [ -86.471726999837784, 36.989838987118489 ] } },
{ "type": "Feature", "properties": { "NAME": "LADYBUGS FRITTERS AND FRIES", "ABC START FOR LICENSE YEAR": null, "START DATE DATE": "05\/08\/2018", "ADDRESS": "0 CITYWIDE", "CITY": "BOWLING GREEN", "ST": "KY", "ZIP": "42101", "COUNTRY": "UNITED STATES", "DAY PHONE": "270-996-7765", "DESCRIPTION '1": "FOOD TRUCK", "CUISINE": "AMERICAN", "OWNERSHIP": "PRIVATE", "TYPE": "FOOD TRUCK", "result_num": "0", "score": "89.71", "address_match": "Bowling Green, Kentucky", "Loc_name": "World", "Addr_type": "Locality", "User_fld": "", "latlong": "36.994620000000054,-86.44557999999995" }, "geometry": { "type": "Point", "coordinates": [ -86.44558, 36.99462 ] } },
{ "type": "Feature", "properties": { "NAME": "LATE NITE SWEETS N TREATS", "ABC START FOR LICENSE YEAR": null, "START DATE DATE": "09\/17\/2017", "ADDRESS": "420 OLD MORGANTOWN RD STE 5", "CITY": "BOWLING GREEN", "ST": "KY", "ZIP": "42101", "COUNTRY": "UNITED STATES", "DAY PHONE": "270-438-9569", "DESCRIPTION '1": "DESSERT BOUTIQUE", "CUISINE": "DESSERT SHOP", "OWNERSHIP": "PRIVATE", "TYPE": "BRICK\/MORTAR", "result_num": "0", "score": "100", "address_match": "420 Old Morgantown Rd, Bowling Green, Kentucky, 42101", "Loc_name": "World", "Addr_type": "PointAddress", "User_fld": "", "latlong": "36.988706005266266,-86.46295701454531" }, "geometry": { "type": "Point", "coordinates": [ -86.46295701454531, 36.988706005266266 ] } },
{ "type": "Feature", "properties": { "NAME": "LISA'S FIFTH STREET DINER", "ABC START FOR LICENSE YEAR": null, "START DATE DATE": "01\/01\/2016", "ADDRESS": "430 CENTER STREET", "CITY": "BOWLING GREEN", "ST": "KY", "ZIP": "42101", "COUNTRY": "UNITED STATES", "DAY PHONE": "270-904-1467", "DESCRIPTION '1": "DINER", "CUISINE": "AMERICAN", "OWNERSHIP": "PRIVATE", "TYPE": "BRICK\/MORTAR", "result_num": "0", "score": "100", "address_match": "430 Center St, Bowling Green, Kentucky, 42101", "Loc_name": "World", "Addr_type": "PointAddress", "User_fld": "", "latlong": "36.99814000492829,-86.43720898145679" }, "geometry": { "type": "Point", "coordinates": [ -86.437208981456791, 36.998140004928288 ] } },
{ "type": "Feature", "properties": { "NAME": "LOCAL TACO THE", "ABC START FOR LICENSE YEAR": "2018", "START DATE DATE": "09\/14\/2018", "ADDRESS": "430 US 31W BYPASS", "CITY": "BOWLING GREEN", "ST": "KY", "ZIP": "42101", "COUNTRY": "UNITED STATES", "DAY PHONE": "270-938-1028", "DESCRIPTION '1": "RESTAURANT", "CUISINE": "TEX-MEX", "OWNERSHIP": "PRIVATE", "TYPE": "BRICK\/MORTAR", "result_num": "0", "score": "100", "address_match": "430 Us 31w Byp, Bowling Green, Kentucky, 42101", "Loc_name": "World", "Addr_type": "PointAddress", "User_fld": "", "latlong": "36.99349601147394,-86.4263560094062" }, "geometry": { "type": "Point", "coordinates": [ -86.426356009406206, 36.993496011473937 ] } },
{ "type": "Feature", "properties": { "NAME": "LOS MARIACHIS", "ABC START FOR LICENSE YEAR": "2014", "START DATE DATE": "04\/14\/2014", "ADDRESS": "2945 SCOTTSVILLE RD A-1B", "CITY": "BOWLING GREEN", "ST": "KY", "ZIP": "42104", "COUNTRY": "UNITED STATES", "DAY PHONE": "270-780-2440", "DESCRIPTION '1": "RESTAURANT", "CUISINE": "MEXICAN", "OWNERSHIP": "PRIVATE", "TYPE": "BRICK\/MORTAR", "result_num": "0", "score": "99.35", "address_match": "2945 Scottsville Rd, Bowling Green, Kentucky, 42104", "Loc_name": "World", "Addr_type": "PointAddress", "User_fld": "", "latlong": "36.943578006207744,-86.42563298643829" }, "geometry": { "type": "Point", "coordinates": [ -86.425632986438288, 36.943578006207744 ] } },
{ "type": "Feature", "properties": { "NAME": "LOST RIVER PIZZA COMPANY", "ABC START FOR LICENSE YEAR": "2011", "START DATE DATE": "09\/01\/2011", "ADDRESS": "2440 NASHVILLE RD STE 106-110", "CITY": "BOWLING GREEN", "ST": "KY", "ZIP": "42101", "COUNTRY": "UNITED STATES", "DAY PHONE": "270-746-0255", "DESCRIPTION '1": "RESTAURANT", "CUISINE": "PIZZA", "OWNERSHIP": "PRIVATE", "TYPE": "BRICK\/MORTAR", "result_num": "0", "score": "100", "address_match": "2440 Nashville Rd, Ste 106, Bowling Green, Kentucky, 42101", "Loc_name": "World", "Addr_type": "Subaddress", "User_fld": "", "latlong": "36.95934901803702,-86.46928300450988" }, "geometry": { "type": "Point", "coordinates": [ -86.469283004509876, 36.959349018037017 ] } },
{ "type": "Feature", "properties": { "NAME": "LUNCH BOX CAFE", "ABC START FOR LICENSE YEAR": null, "START DATE DATE": "10\/26\/1999", "ADDRESS": "824 CENTER ST", "CITY": "BOWLING GREEN", "ST": "KY", "ZIP": "42101", "COUNTRY": "UNITED STATES", "DAY PHONE": "270-780-0023", "DESCRIPTION '1": "RESTAURANT", "CUISINE": "AMERICAN", "OWNERSHIP": "PRIVATE", "TYPE": "BRICK\/MORTAR", "result_num": "0", "score": "100", "address_match": "824 Center St, Bowling Green, Kentucky, 42101", "Loc_name": "World", "Addr_type": "PointAddress", "User_fld": "", "latlong": "36.995096996889956,-86.44197501542139" }, "geometry": { "type": "Point", "coordinates": [ -86.441975015421392, 36.995096996889956 ] } },
{ "type": "Feature", "properties": { "NAME": "MARY JANE'S CHOCOLATES", "ABC START FOR LICENSE YEAR": null, "START DATE DATE": "02\/01\/2010", "ADDRESS": "825 COLLEGE STREET", "CITY": "BOWLING GREEN", "ST": "KY", "ZIP": "42101", "COUNTRY": "UNITED STATES", "DAY PHONE": "270-282-6216", "DESCRIPTION '1": "CHOCOLATE ARTISIAN", "CUISINE": "CANDY SHOP", "OWNERSHIP": "PRIVATE", "TYPE": "BRICK\/MORTAR", "result_num": "0", "score": "100", "address_match": "825 College St, Bowling Green, Kentucky, 42101", "Loc_name": "World", "Addr_type": "PointAddress", "User_fld": "", "latlong": "36.99449702026067,-86.44124402964546" }, "geometry": { "type": "Point", "coordinates": [ -86.441244029645461, 36.994497020260667 ] } },
{ "type": "Feature", "properties": { "NAME": "MEX-OUT", "ABC START FOR LICENSE YEAR": null, "START DATE DATE": "03\/12\/2015", "ADDRESS": "1355 VETERANS MEMORIAL BVD", "CITY": "BOWLING GREEN", "ST": "KY", "ZIP": "42101", "COUNTRY": "UNITED STATES", "DAY PHONE": "000-000-0000", "DESCRIPTION '1": "RESTAURANT", "CUISINE": "MEXICAN", "OWNERSHIP": "PRIVATE", "TYPE": "BRICK\/MORTAR", "result_num": "0", "score": "98.29", "address_match": "1355 Veterans Memorial Ln, Bowling Green, Kentucky, 42101", "Loc_name": "World", "Addr_type": "PointAddress", "User_fld": "", "latlong": "36.986516987432964,-86.48712799255136" }, "geometry": { "type": "Point", "coordinates": [ -86.487127992551365, 36.986516987432964 ] } },
{ "type": "Feature", "properties": { "NAME": "MOTOR CITY BAR & GRILL", "ABC START FOR LICENSE YEAR": "2011", "START DATE DATE": "06\/01\/2011", "ADDRESS": "191 CUMBERLAND TRACE RD", "CITY": "BOWLING GREEN", "ST": "KY", "ZIP": "42101", "COUNTRY": "UNITED STATES", "DAY PHONE": "270-782-6299", "DESCRIPTION '1": "RESTAURANT", "CUISINE": "AMERICAN", "OWNERSHIP": "PRIVATE", "TYPE": "BRICK\/MORTAR", "result_num": "0", "score": "100", "address_match": "191 Cumberland Trace Rd, Bowling Green, Kentucky, 42103", "Loc_name": "World", "Addr_type": "PointAddress", "User_fld": "", "latlong": "36.93364599576856,-86.41505301297411" }, "geometry": { "type": "Point", "coordinates": [ -86.415053012974113, 36.933645995768558 ] } },
{ "type": "Feature", "properties": { "NAME": "NEW CENTURY BUFFET", "ABC START FOR LICENSE YEAR": null, "START DATE DATE": "04\/01\/2009", "ADDRESS": "160 RIVER PLACE STE C", "CITY": "BOWLING GREEN", "ST": "KY", "ZIP": "42101", "COUNTRY": "UNITED STATES", "DAY PHONE": "270-746-6733", "DESCRIPTION '1": "RESTAURANT", "CUISINE": "CHINESE", "OWNERSHIP": "PRIVATE", "TYPE": "BRICK\/MORTAR", "result_num": "0", "score": "98.97", "address_match": "160 River Place Ave, Ste C, Bowling Green, Kentucky, 42101", "Loc_name": "World", "Addr_type": "Subaddress", "User_fld": "", "latlong": "37.00872002030198,-86.39144999272723" }, "geometry": { "type": "Point", "coordinates": [ -86.391449992727232, 37.008720020301979 ] } },
{ "type": "Feature", "properties": { "NAME": "NINE20LIVE", "ABC START FOR LICENSE YEAR": null, "START DATE DATE": "01\/01\/2018", "ADDRESS": "164 IRON SKILLET COURT", "CITY": "BOWLING GREEN", "ST": "KY", "ZIP": "42104", "COUNTRY": "UNITED STATES", "DAY PHONE": "270-938-3696", "DESCRIPTION '1": "RESTAURANT", "CUISINE": "BBQ", "OWNERSHIP": "PRIVATE", "TYPE": "BRICK\/MORTAR", "result_num": "0", "score": "99.5", "address_match": "164 Ironskillet Ct, Bowling Green, Kentucky, 42104", "Loc_name": "World", "Addr_type": "PointAddress", "User_fld": "", "latlong": "36.928658009007876,-86.41361501366534" }, "geometry": { "type": "Point", "coordinates": [ -86.413615013665336, 36.928658009007876 ] } },
{ "type": "Feature", "properties": { "NAME": "OLYMPIC BAR AND RESTAURANT", "ABC START FOR LICENSE YEAR": "2010", "START DATE DATE": "11\/01\/2010", "ADDRESS": "166 ST CHARLES AVE", "CITY": "BOWLING GREEN", "ST": "KY", "ZIP": "42101", "COUNTRY": "UNITED STATES", "DAY PHONE": "027-303-1829", "DESCRIPTION '1": "RESTAURANT", "CUISINE": "EASTERN EUROPEAN ", "OWNERSHIP": "PRIVATE", "TYPE": "BRICK\/MORTAR", "result_num": "0", "score": "98.29", "address_match": "166 Saint Charles St, Bowling Green, Kentucky, 42101", "Loc_name": "World", "Addr_type": "PointAddress", "User_fld": "", "latlong": "36.97832698793073,-86.47313096861967" }, "geometry": { "type": "Point", "coordinates": [ -86.473130968619671, 36.978326987930728 ] } },
{ "type": "Feature", "properties": { "NAME": "ON THE GO BBQ & GRILL LLC", "ABC START FOR LICENSE YEAR": null, "START DATE DATE": "02\/01\/2018", "ADDRESS": "0 CITYWIDE", "CITY": "BOWLING GREEN", "ST": "KY", "ZIP": "42101", "COUNTRY": "UNITED STATES", "DAY PHONE": "000-000-0000", "DESCRIPTION '1": "CONCESSION TRAILER", "CUISINE": "BBQ", "OWNERSHIP": "PRIVATE", "TYPE": "FOOD TRUCK", "result_num": "0", "score": "89.71", "address_match": "Bowling Green, Kentucky", "Loc_name": "World", "Addr_type": "Locality", "User_fld": "", "latlong": "36.994620000000054,-86.44557999999995" }, "geometry": { "type": "Point", "coordinates": [ -86.44558, 36.99462 ] } },
{ "type": "Feature", "properties": { "NAME": "ONE-2-DA-BONE", "ABC START FOR LICENSE YEAR": null, "START DATE DATE": "08\/02\/2017", "ADDRESS": "306 A OLD MORGANTOWN RD", "CITY": "BOWLING GREEN", "ST": "KY", "ZIP": "42101", "COUNTRY": "UNITED STATES", "DAY PHONE": "000-000-0000", "DESCRIPTION '1": "RESTAURANT", "CUISINE": "BBQ", "OWNERSHIP": "PRIVATE", "TYPE": "BRICK\/MORTAR", "result_num": "0", "score": "99.99", "address_match": "306 Old Morgantown Rd, Bowling Green, Kentucky, 42101", "Loc_name": "World", "Addr_type": "PointAddress", "User_fld": "", "latlong": "36.988875990262656,-86.4598609909694" }, "geometry": { "type": "Point", "coordinates": [ -86.459860990969403, 36.988875990262656 ] } },
{ "type": "Feature", "properties": { "NAME": "OSAKA SUSHI TRAIN", "ABC START FOR LICENSE YEAR": "2015", "START DATE DATE": "12\/08\/2015", "ADDRESS": "2425 SCOTTSVILLE RD STE 118", "CITY": "BOWLING GREEN", "ST": "KY", "ZIP": "42101", "COUNTRY": "UNITED STATES", "DAY PHONE": "000-000-0000", "DESCRIPTION '1": "RESTAURANT", "CUISINE": "JAPANESE", "OWNERSHIP": "PRIVATE", "TYPE": "BRICK\/MORTAR", "result_num": "0", "score": "100", "address_match": "2425 Scottsville Rd, Ste 118, Bowling Green, Kentucky, 42104", "Loc_name": "World", "Addr_type": "Subaddress", "User_fld": "", "latlong": "36.952670988139076,-86.427801971523" }, "geometry": { "type": "Point", "coordinates": [ -86.427801971522996, 36.952670988139076 ] } },
{ "type": "Feature", "properties": { "NAME": "OVERTIME SPORTS BAR & GRILL", "ABC START FOR LICENSE YEAR": "2015", "START DATE DATE": "07\/01\/2012", "ADDRESS": "773 BAKERSFIELD WAY", "CITY": "BOWLING GREEN", "ST": "KY", "ZIP": "42104", "COUNTRY": "UNITED STATES", "DAY PHONE": "270-904-4430", "DESCRIPTION '1": "RESTAURANT", "CUISINE": "AMERICAN", "OWNERSHIP": "PRIVATE", "TYPE": "BRICK\/MORTAR", "result_num": "0", "score": "100", "address_match": "773 Bakersfield Way, Bowling Green, Kentucky, 42104", "Loc_name": "World", "Addr_type": "StreetAddress", "User_fld": "", "latlong": "36.9606637511238,-86.46435459834403" }, "geometry": { "type": "Point", "coordinates": [ -86.46435459834403, 36.960663751123803 ] } },
{ "type": "Feature", "properties": { "NAME": "PANDA RESTAURANT", "ABC START FOR LICENSE YEAR": null, "START DATE DATE": "05\/30\/2011", "ADDRESS": "330  US 31W BY PASS  101", "CITY": "BOWLING GREEN", "ST": "KY", "ZIP": "42101", "COUNTRY": "UNITED STATES", "DAY PHONE": "270-393-8277", "DESCRIPTION '1": "RESTAURANT", "CUISINE": "CHINESE", "OWNERSHIP": "PRIVATE", "TYPE": "BRICK\/MORTAR", "result_num": "0", "score": "97.91", "address_match": "330 US-31W, Bowling Green, Kentucky, 42101", "Loc_name": "World", "Addr_type": "StreetAddress", "User_fld": "", "latlong": "36.996721240296125,-86.42634651838897" }, "geometry": { "type": "Point", "coordinates": [ -86.426346518388968, 36.996721240296125 ] } },
{ "type": "Feature", "properties": { "NAME": "PARKWAY LIQUOR", "ABC START FOR LICENSE YEAR": "2013", "START DATE DATE": "01\/01\/2013", "ADDRESS": "2654 RUSSELLVILLE RD", "CITY": "BOWLING GREEN", "ST": "KY", "ZIP": "42101", "COUNTRY": "UNITED STATES", "DAY PHONE": "000-000-0000", "DESCRIPTION '1": "PACKAAGE LIQUOR", "CUISINE": "LIQUOR", "OWNERSHIP": "PRIVATE", "TYPE": "BRICK\/MORTAR", "result_num": "0", "score": "100", "address_match": "2654 Russellville Rd, Bowling Green, Kentucky, 42101", "Loc_name": "World", "Addr_type": "PointAddress", "User_fld": "", "latlong": "36.961073007882135,-86.49026802111895" }, "geometry": { "type": "Point", "coordinates": [ -86.490268021118951, 36.961073007882135 ] } },
{ "type": "Feature", "properties": { "NAME": "PHO BC VIETNAMESE REST LLC", "ABC START FOR LICENSE YEAR": "2016", "START DATE DATE": "09\/08\/2016", "ADDRESS": "1640 SCOTTSVILLE RD STE 600", "CITY": "BOWLING GREEN", "ST": "KY", "ZIP": "42104", "COUNTRY": "UNITED STATES", "DAY PHONE": "270-904-1857", "DESCRIPTION '1": "RESTAURANT", "CUISINE": "VIETNAMESE", "OWNERSHIP": "PRIVATE", "TYPE": "BRICK\/MORTAR", "result_num": "0", "score": "100", "address_match": "1640 Scottsville Rd, Ste 600, Bowling Green, Kentucky, 42104", "Loc_name": "World", "Addr_type": "Subaddress", "User_fld": "", "latlong": "36.971380988588265,-86.43331500069858" }, "geometry": { "type": "Point", "coordinates": [ -86.433315000698585, 36.971380988588265 ] } },
{ "type": "Feature", "properties": { "NAME": "PIT STOP LLC", "ABC START FOR LICENSE YEAR": "2017", "START DATE DATE": "08\/01\/2017", "ADDRESS": "3315 LOUISVILLE RD", "CITY": "BOWLING GREEN", "ST": "KY", "ZIP": "42101", "COUNTRY": "UNITED STATES", "DAY PHONE": "270-495-1190", "DESCRIPTION '1": "BAR & GRILL", "CUISINE": "BAR", "OWNERSHIP": "PRIVATE", "TYPE": "BRICK\/MORTAR", "result_num": "0", "score": "100", "address_match": "3315 Louisville Rd, Bowling Green, Kentucky, 42101", "Loc_name": "World", "Addr_type": "PointAddress", "User_fld": "", "latlong": "37.01096800482411,-86.3936069916904" }, "geometry": { "type": "Point", "coordinates": [ -86.393606991690405, 37.010968004824107 ] } },
{ "type": "Feature", "properties": { "NAME": "QUE PASA TACOS INC", "ABC START FOR LICENSE YEAR": "2017", "START DATE DATE": "09\/30\/2017", "ADDRESS": "2440 NASHVILLE RD", "CITY": "BOWLING GREEN", "ST": "KY", "ZIP": "42101", "COUNTRY": "UNITED STATES", "DAY PHONE": "801-635-6925", "DESCRIPTION '1": "RESTAURANT", "CUISINE": "MEXICAN", "OWNERSHIP": "PRIVATE", "TYPE": "BRICK\/MORTAR", "result_num": "0", "score": "100", "address_match": "2440 Nashville Rd, Bowling Green, Kentucky, 42101", "Loc_name": "World", "Addr_type": "PointAddress", "User_fld": "", "latlong": "36.95934901803702,-86.46928300450988" }, "geometry": { "type": "Point", "coordinates": [ -86.469283004509876, 36.959349018037017 ] } },
{ "type": "Feature", "properties": { "NAME": "S & D SOUL  FAVORITES", "ABC START FOR LICENSE YEAR": null, "START DATE DATE": "10\/16\/2015", "ADDRESS": "CITYWIDE", "CITY": "BOWLING GREEN", "ST": "KY", "ZIP": "42101", "COUNTRY": "UNITED STATES", "DAY PHONE": "270-303-6796", "DESCRIPTION '1": "FOOD TRUCK", "CUISINE": "AMERICAN", "OWNERSHIP": "PRIVATE", "TYPE": "FOOD TRUCK", "result_num": "0", "score": "90.59", "address_match": "Bowling Green, Kentucky", "Loc_name": "World", "Addr_type": "Locality", "User_fld": "", "latlong": "36.994620000000054,-86.44557999999995" }, "geometry": { "type": "Point", "coordinates": [ -86.44558, 36.99462 ] } },
{ "type": "Feature", "properties": { "NAME": "SAMURAI SUSHI & STEAK", "ABC START FOR LICENSE YEAR": "2007", "START DATE DATE": "04\/01\/2007", "ADDRESS": "2718 SCOTTSVILLE RD", "CITY": "BOWLING GREEN", "ST": "KY", "ZIP": "42104", "COUNTRY": "UNITED STATES", "DAY PHONE": "270-782-5004", "DESCRIPTION '1": "RESTAURANT", "CUISINE": "SUSHI\/STEAKHOUSE", "OWNERSHIP": "PRIVATE", "TYPE": "BRICK\/MORTAR", "result_num": "0", "score": "100", "address_match": "2718 Scottsville Rd, Bowling Green, Kentucky, 42104", "Loc_name": "World", "Addr_type": "StreetAddress", "User_fld": "", "latlong": "36.94858938933334,-86.4238778489508" }, "geometry": { "type": "Point", "coordinates": [ -86.423877848950795, 36.948589389333343 ] } },
{ "type": "Feature", "properties": { "NAME": "SHIN YUKI LLC", "ABC START FOR LICENSE YEAR": "2009", "START DATE DATE": "09\/08\/2009", "ADDRESS": "JO NISHIJIMA", "CITY": "BOWLING GREEN", "ST": "KY", "ZIP": "42104", "COUNTRY": "UNITED STATES", "DAY PHONE": "270-303-6688", "DESCRIPTION '1": "RESTAURANT                   *", "CUISINE": "JAPANESE", "OWNERSHIP": "PRIVATE", "TYPE": "BRICK\/MORTAR", "result_num": "0", "score": "88.11", "address_match": "Bowling Green, Kentucky", "Loc_name": "World", "Addr_type": "Locality", "User_fld": "", "latlong": "36.994620000000054,-86.44557999999995" }, "geometry": { "type": "Point", "coordinates": [ -86.44558, 36.99462 ] } },
{ "type": "Feature", "properties": { "NAME": "SHYAMROCK LIQUORS", "ABC START FOR LICENSE YEAR": "2014", "START DATE DATE": "07\/01\/2014", "ADDRESS": "2926 NASHVILLE RD", "CITY": "BOWLING GREEN", "ST": "KY", "ZIP": "42101", "COUNTRY": "UNITED STATES", "DAY PHONE": "000-000-0000", "DESCRIPTION '1": "LIQUOR STORE", "CUISINE": "LIQUOR", "OWNERSHIP": "PRIVATE", "TYPE": "BRICK\/MORTAR", "result_num": "0", "score": "100", "address_match": "2926 Nashville Rd, Bowling Green, Kentucky, 42101", "Loc_name": "World", "Addr_type": "PointAddress", "User_fld": "", "latlong": "36.95209401983399,-86.47452202927066" }, "geometry": { "type": "Point", "coordinates": [ -86.474522029270659, 36.952094019833993 ] } },
{ "type": "Feature", "properties": { "NAME": "SMOKEY PIG BAR-B-Q LLC", "ABC START FOR LICENSE YEAR": "2015", "START DATE DATE": "01\/01\/2015", "ADDRESS": "2520 LOUISVILLE RD", "CITY": "BOWLING GREEN", "ST": "KY", "ZIP": "42101", "COUNTRY": "UNITED STATES", "DAY PHONE": "270-781-1712", "DESCRIPTION '1": "RESTAURANT", "CUISINE": "BBQ", "OWNERSHIP": "PRIVATE", "TYPE": "BRICK\/MORTAR", "result_num": "0", "score": "100", "address_match": "2520 Louisville Rd, Bowling Green, Kentucky, 42101", "Loc_name": "World", "Addr_type": "PointAddress", "User_fld": "", "latlong": "37.00834601978228,-86.40653096437758" }, "geometry": { "type": "Point", "coordinates": [ -86.406530964377581, 37.00834601978228 ] } },
{ "type": "Feature", "properties": { "NAME": "SPILLWAY BAR & GRILL", "ABC START FOR LICENSE YEAR": "2007", "START DATE DATE": "11\/17\/2007", "ADDRESS": "2195 RIVER STREET", "CITY": "BOWLING GREEN", "ST": "KY", "ZIP": "42101", "COUNTRY": "UNITED STATES", "DAY PHONE": "270-842-9397", "DESCRIPTION '1": "BAR & GRILL", "CUISINE": "AMERICAN", "OWNERSHIP": "PRIVATE", "TYPE": "BRICK\/MORTAR", "result_num": "0", "score": "100", "address_match": "2195 River St, Bowling Green, Kentucky, 42101", "Loc_name": "World", "Addr_type": "PointAddress", "User_fld": "", "latlong": "37.00748301903134,-86.41128601804901" }, "geometry": { "type": "Point", "coordinates": [ -86.411286018049012, 37.007483019031341 ] } },
{ "type": "Feature", "properties": { "NAME": "SPRINGHILL LIQUORS", "ABC START FOR LICENSE YEAR": "2015", "START DATE DATE": "12\/08\/2015", "ADDRESS": "2037 RUSSELLVILLE RD", "CITY": "BOWLING GREEN", "ST": "KY", "ZIP": "42101", "COUNTRY": "UNITED STATES", "DAY PHONE": "270-782-5551", "DESCRIPTION '1": "PACKAGE STORE", "CUISINE": "LIQUOR", "OWNERSHIP": "PRIVATE", "TYPE": "BRICK\/MORTAR", "result_num": "0", "score": "100", "address_match": "2037 Russellville Rd, Bowling Green, Kentucky, 42101", "Loc_name": "World", "Addr_type": "PointAddress", "User_fld": "", "latlong": "36.975636983744636,-86.47232898812383" }, "geometry": { "type": "Point", "coordinates": [ -86.472328988123834, 36.975636983744636 ] } },
{ "type": "Feature", "properties": { "NAME": "THE SMUG BEAGLE", "ABC START FOR LICENSE YEAR": "2016", "START DATE DATE": "08\/01\/2016", "ADDRESS": "927 COLLEGE ST", "CITY": "BOWLING GREEN", "ST": "KY", "ZIP": "42101", "COUNTRY": "UNITED STATES", "DAY PHONE": "270-784-6001", "DESCRIPTION '1": "RESTAURANT", "CUISINE": "AMERICAN", "OWNERSHIP": "PRIVATE", "TYPE": "BRICK\/MORTAR", "result_num": "0", "score": "100", "address_match": "927 College St, Bowling Green, Kentucky, 42101", "Loc_name": "World", "Addr_type": "PointAddress", "User_fld": "", "latlong": "36.993648017288024,-86.442559988444" }, "geometry": { "type": "Point", "coordinates": [ -86.442559988444003, 36.993648017288024 ] } },
{ "type": "Feature", "properties": { "NAME": "STAKZ", "ABC START FOR LICENSE YEAR": null, "START DATE DATE": "09\/01\/2018", "ADDRESS": "1945 SCOTTSVILLE ROAD STE A6", "CITY": "BOWLING GREEN", "ST": "KY", "ZIP": "42104", "COUNTRY": "UNITED STATES", "DAY PHONE": "270-535-1056", "DESCRIPTION '1": "FROZEN YOGURT", "CUISINE": "FROZEN YOGURT SHOP", "OWNERSHIP": "PRIVATE", "TYPE": "BRICK\/MORTAR", "result_num": "0", "score": "100", "address_match": "1945 Scottsville Rd, Ste A6, Bowling Green, Kentucky, 42104", "Loc_name": "World", "Addr_type": "Subaddress", "User_fld": "", "latlong": "36.96279699772727,-86.43165203110857" }, "geometry": { "type": "Point", "coordinates": [ -86.43165203110857, 36.962796997727267 ] } },
{ "type": "Feature", "properties": { "NAME": "SUKI HANA", "ABC START FOR LICENSE YEAR": null, "START DATE DATE": "03\/15\/2002", "ADDRESS": "2625 SCOTTSVILLE RD  # FC-6", "CITY": "BOWLING GREEN", "ST": "KY", "ZIP": "42104", "COUNTRY": "UNITED STATES", "DAY PHONE": "270-842-2866", "DESCRIPTION '1": "RESTAURANT", "CUISINE": "JAPANESE", "OWNERSHIP": "PRIVATE", "TYPE": "BRICK\/MORTAR", "result_num": "0", "score": "100", "address_match": "2625 Scottsville Rd, Bowling Green, Kentucky, 42104", "Loc_name": "World", "Addr_type": "PointAddress", "User_fld": "", "latlong": "36.94865999601254,-86.42798000314644" }, "geometry": { "type": "Point", "coordinates": [ -86.427980003146445, 36.948659996012537 ] } },
{ "type": "Feature", "properties": { "NAME": "SWEET TEMPTATIONS BG CATERING", "ABC START FOR LICENSE YEAR": null, "START DATE DATE": "03\/01\/2017", "ADDRESS": "600 3A US 31W BYPASS", "CITY": "BOWLING GREEN", "ST": "KY", "ZIP": "42101", "COUNTRY": "UNITED STATES", "DAY PHONE": "270-904-4210", "DESCRIPTION '1": "CATERING", "CUISINE": "BAKERY", "OWNERSHIP": "PRIVATE", "TYPE": "BRICK\/MORTAR", "result_num": "0", "score": "98.53", "address_match": "600 Us 31w Byp, Bowling Green, Kentucky, 42101", "Loc_name": "World", "Addr_type": "PointAddress", "User_fld": "", "latlong": "36.987933990074296,-86.42785896846459" }, "geometry": { "type": "Point", "coordinates": [ -86.427858968464591, 36.987933990074296 ] } },
{ "type": "Feature", "properties": { "NAME": "TAQUERIA Y CAFETERIA LOS VAZQ", "ABC START FOR LICENSE YEAR": null, "START DATE DATE": "11\/01\/2016", "ADDRESS": "850 MORGANTOWN RD", "CITY": "BOWLING GREEN", "ST": "KY", "ZIP": "42101", "COUNTRY": "UNITED STATES", "DAY PHONE": "270-791-5900", "DESCRIPTION '1": "RESTAURANT", "CUISINE": "MEXICAN", "OWNERSHIP": "PRIVATE", "TYPE": "BRICK\/MORTAR", "result_num": "0", "score": "100", "address_match": "850 Morgantown Rd, Bowling Green, Kentucky, 42101", "Loc_name": "World", "Addr_type": "PointAddress", "User_fld": "", "latlong": "36.98845500917568,-86.47389196160896" }, "geometry": { "type": "Point", "coordinates": [ -86.473891961608956, 36.988455009175681 ] } },
{ "type": "Feature", "properties": { "NAME": "TERESA'S RESTAURANT", "ABC START FOR LICENSE YEAR": null, "START DATE DATE": "07\/07\/2014", "ADDRESS": "509 GORDON AVE", "CITY": "BOWLING GREEN", "ST": "KY", "ZIP": "42101", "COUNTRY": "UNITED STATES", "DAY PHONE": "270-782-6542", "DESCRIPTION '1": "RESTAURANT", "CUISINE": "AMERICAN", "OWNERSHIP": "PRIVATE", "TYPE": "BRICK\/MORTAR", "result_num": "0", "score": "100", "address_match": "509 Gordon Ave, Bowling Green, Kentucky, 42101", "Loc_name": "World", "Addr_type": "PointAddress", "User_fld": "", "latlong": "37.00418700324566,-86.4435809880698" }, "geometry": { "type": "Point", "coordinates": [ -86.443580988069797, 37.004187003245661 ] } },
{ "type": "Feature", "properties": { "NAME": "THAI EXPRESS", "ABC START FOR LICENSE YEAR": null, "START DATE DATE": "01\/01\/2008", "ADDRESS": "1511 US 31W BYPASS", "CITY": "BOWLING GREEN", "ST": "KY", "ZIP": "42101", "COUNTRY": "UNITED STATES", "DAY PHONE": "000-000-0000", "DESCRIPTION '1": "RESTAURANT", "CUISINE": "THAI", "OWNERSHIP": "PRIVATE", "TYPE": "BRICK\/MORTAR", "result_num": "0", "score": "100", "address_match": "1511 Us 31w Byp, Bowling Green, Kentucky, 42101", "Loc_name": "World", "Addr_type": "PointAddress", "User_fld": "", "latlong": "36.98104301792618,-86.44607200587451" }, "geometry": { "type": "Point", "coordinates": [ -86.446072005874512, 36.981043017926183 ] } },
{ "type": "Feature", "properties": { "NAME": "THAI THAI RESTAURANT LLC", "ABC START FOR LICENSE YEAR": "2011", "START DATE DATE": "11\/19\/2010", "ADDRESS": "712 CHESTNUT ST STE A", "CITY": "BOWLING GREEN", "ST": "KY", "ZIP": "42101", "COUNTRY": "UNITED STATES", "DAY PHONE": "270-782-7899", "DESCRIPTION '1": "RESTAURANT", "CUISINE": "THAI", "OWNERSHIP": "PRIVATE", "TYPE": "BRICK\/MORTAR", "result_num": "0", "score": "100", "address_match": "712 Chestnut St, Bowling Green, Kentucky, 42101", "Loc_name": "World", "Addr_type": "PointAddress", "User_fld": "", "latlong": "36.99311300040833,-86.43733797894667" }, "geometry": { "type": "Point", "coordinates": [ -86.437337978946672, 36.993113000408329 ] } },
{ "type": "Feature", "properties": { "NAME": "THIRD'S BBQ FISH & WINGS", "ABC START FOR LICENSE YEAR": null, "START DATE DATE": "02\/13\/2012", "ADDRESS": "200 COLLEGE ST", "CITY": "BOWLING GREEN", "ST": "KY", "ZIP": "42101", "COUNTRY": "UNITED STATES", "DAY PHONE": "270-303-5917", "DESCRIPTION '1": "RESTAURANT & CATERING", "CUISINE": "BBQ", "OWNERSHIP": "PRIVATE", "TYPE": "BRICK\/MORTAR", "result_num": "0", "score": "100", "address_match": "200 College St, Bowling Green, Kentucky, 42101", "Loc_name": "World", "Addr_type": "PointAddress", "User_fld": "", "latlong": "36.9997179820201,-86.4324059832992" }, "geometry": { "type": "Point", "coordinates": [ -86.432405983299205, 36.999717982020101 ] } },
{ "type": "Feature", "properties": { "NAME": "THREE BROTHERS II", "ABC START FOR LICENSE YEAR": "2016", "START DATE DATE": "07\/01\/2016", "ADDRESS": "330 MAIN AVE E", "CITY": "BOWLING GREEN", "ST": "KY", "ZIP": "42101", "COUNTRY": "UNITED STATES", "DAY PHONE": "270-784-1111", "DESCRIPTION '1": "BAR", "CUISINE": "BAR", "OWNERSHIP": "PRIVATE", "TYPE": "BRICK\/MORTAR", "result_num": "0", "score": "99.9", "address_match": "330 E Main Ave, Bowling Green, Kentucky, 42101", "Loc_name": "World", "Addr_type": "StreetAddress", "User_fld": "", "latlong": "36.99462010609615,-86.44223367655958" }, "geometry": { "type": "Point", "coordinates": [ -86.442233676559582, 36.99462010609615 ] } },
{ "type": "Feature", "properties": { "NAME": "TIDBALL'S", "ABC START FOR LICENSE YEAR": "2001", "START DATE DATE": "12\/01\/2001", "ADDRESS": "522 MORRIS ALLEY", "CITY": "BOWLING GREEN", "ST": "KY", "ZIP": "42101", "COUNTRY": "UNITED STATES", "DAY PHONE": "270-793-9955", "DESCRIPTION '1": "BAR                          *", "CUISINE": "BAR", "OWNERSHIP": "PRIVATE", "TYPE": "BRICK\/MORTAR", "result_num": "0", "score": "100", "address_match": "522 Morris Aly, Bowling Green, Kentucky, 42101", "Loc_name": "World", "Addr_type": "PointAddress", "User_fld": "", "latlong": "36.99161201109719,-86.44059099556905" }, "geometry": { "type": "Point", "coordinates": [ -86.440590995569053, 36.991612011097189 ] } },
{ "type": "Feature", "properties": { "NAME": "TOKYO STEAKHOUSE", "ABC START FOR LICENSE YEAR": null, "START DATE DATE": "01\/01\/2016", "ADDRESS": "430 US 31W BYPASS", "CITY": "BOWLING GREEN", "ST": "KY", "ZIP": "42101", "COUNTRY": "UNITED STATES", "DAY PHONE": "270-599-1702", "DESCRIPTION '1": "RESTAURANT", "CUISINE": "SUSHI\/STEAKHOUSE", "OWNERSHIP": "PRIVATE", "TYPE": "BRICK\/MORTAR", "result_num": "0", "score": "100", "address_match": "430 Us 31w Byp, Bowling Green, Kentucky, 42101", "Loc_name": "World", "Addr_type": "PointAddress", "User_fld": "", "latlong": "36.99349601147394,-86.4263560094062" }, "geometry": { "type": "Point", "coordinates": [ -86.426356009406206, 36.993496011473937 ] } },
{ "type": "Feature", "properties": { "NAME": "TROPICAL TREATS", "ABC START FOR LICENSE YEAR": null, "START DATE DATE": "04\/13\/2017", "ADDRESS": "0 CITYWIDE", "CITY": "BOWLING GREEN", "ST": "KY", "ZIP": "42101", "COUNTRY": "UNITED STATES", "DAY PHONE": "270-605-4179", "DESCRIPTION '1": "MOBILE SHAVED ICE", "CUISINE": "SHAVED ICE", "OWNERSHIP": "PRIVATE", "TYPE": "BRICK\/MORTAR", "result_num": "0", "score": "89.71", "address_match": "Bowling Green, Kentucky", "Loc_name": "World", "Addr_type": "Locality", "User_fld": "", "latlong": "36.994620000000054,-86.44557999999995" }, "geometry": { "type": "Point", "coordinates": [ -86.44558, 36.99462 ] } },
{ "type": "Feature", "properties": { "NAME": "TSUNAMI ", "ABC START FOR LICENSE YEAR": "2011", "START DATE DATE": "02\/25\/2011", "ADDRESS": "1689 CAMPBELL LN SUITE 200", "CITY": "BOWLING GREEN", "ST": "KY", "ZIP": "42101", "COUNTRY": "UNITED STATES", "DAY PHONE": "270-904-2230", "DESCRIPTION '1": "RESTAURANT", "CUISINE": "VIETNAMESE", "OWNERSHIP": "PRIVATE", "TYPE": "BRICK\/MORTAR", "result_num": "0", "score": "100", "address_match": "1689 Campbell Ln, Ste 200, Bowling Green, Kentucky, 42104", "Loc_name": "World", "Addr_type": "Subaddress", "User_fld": "", "latlong": "36.950986016053236,-86.43537300938524" }, "geometry": { "type": "Point", "coordinates": [ -86.435373009385245, 36.950986016053236 ] } },
{ "type": "Feature", "properties": { "NAME": "U & V LIQUOR STORES INC", "ABC START FOR LICENSE YEAR": "2006", "START DATE DATE": "12\/01\/2006", "ADDRESS": "4395 LOUISVILLE RD", "CITY": "BOWLING GREEN", "ST": "KY", "ZIP": "42101", "COUNTRY": "UNITED STATES", "DAY PHONE": "270-303-3693", "DESCRIPTION '1": "PACKAGE LIQ STORE            *", "CUISINE": "LIQUOR", "OWNERSHIP": "PRIVATE", "TYPE": "BRICK\/MORTAR", "result_num": "0", "score": "100", "address_match": "4395 Louisville Rd, Bowling Green, Kentucky, 42101", "Loc_name": "World", "Addr_type": "PointAddress", "User_fld": "", "latlong": "37.01605699351805,-86.37720402627122" }, "geometry": { "type": "Point", "coordinates": [ -86.377204026271215, 37.016056993518049 ] } },
{ "type": "Feature", "properties": { "NAME": "VETTE CITY LIQUORS LOUISVILLE", "ABC START FOR LICENSE YEAR": "2015", "START DATE DATE": "12\/01\/2015", "ADDRESS": "3032 LOUISVILLE RD", "CITY": "BOWLING GREEN", "ST": "KY", "ZIP": "42101", "COUNTRY": "UNITED STATES", "DAY PHONE": "270-792-5131", "DESCRIPTION '1": "PACKAGE LIQUOR STORE", "CUISINE": "LIQUOR", "OWNERSHIP": "PRIVATE", "TYPE": "BRICK\/MORTAR", "result_num": "0", "score": "100", "address_match": "3032 Louisville Rd, Bowling Green, Kentucky, 42101", "Loc_name": "World", "Addr_type": "PointAddress", "User_fld": "", "latlong": "37.00982001936521,-86.39769099019361" }, "geometry": { "type": "Point", "coordinates": [ -86.39769099019361, 37.009820019365208 ] } },
{ "type": "Feature", "properties": { "NAME": "JUMBO BUFFET ", "ABC START FOR LICENSE YEAR": null, "START DATE DATE": "01\/01\/2013", "ADDRESS": "1555 CAMPBELL LN", "CITY": "BOWLING GREEN", "ST": "KY", "ZIP": "42104", "COUNTRY": "UNITED STATES", "DAY PHONE": "270-783-8480", "DESCRIPTION '1": "CHINA  BUFFET", "CUISINE": "CHINESE", "OWNERSHIP": "PRIVATE", "TYPE": "BRICK\/MORTAR", "result_num": "0", "score": "100", "address_match": "1555 Campbell Ln, Bowling Green, Kentucky, 42104", "Loc_name": "World", "Addr_type": "PointAddress", "User_fld": "", "latlong": "36.950200003082955,-86.44051497170726" }, "geometry": { "type": "Point", "coordinates": [ -86.440514971707259, 36.950200003082955 ] } },
{ "type": "Feature", "properties": { "NAME": "WHITDOGS FOOD TRUCK", "ABC START FOR LICENSE YEAR": null, "START DATE DATE": "07\/19\/2017", "ADDRESS": "CITYWIDE LOCATIONS", "CITY": "BOWLING GREEN", "ST": "KY", "ZIP": "42104", "COUNTRY": "UNITED STATES", "DAY PHONE": "270-780-8757", "DESCRIPTION '1": "FOOD TRUCK", "CUISINE": "HOT DOGS STAND", "OWNERSHIP": "PRIVATE", "TYPE": "FOOD TRUCK", "result_num": "0", "score": "84.19", "address_match": "Bowling Green, Kentucky", "Loc_name": "World", "Addr_type": "Locality", "User_fld": "", "latlong": "36.994620000000054,-86.44557999999995" }, "geometry": { "type": "Point", "coordinates": [ -86.44558, 36.99462 ] } },
{ "type": "Feature", "properties": { "NAME": "WK LIQUOR INC", "ABC START FOR LICENSE YEAR": "2018", "START DATE DATE": "12\/01\/2018", "ADDRESS": "1603 US 31W BYPASS", "CITY": "BOWLING GREEN", "ST": "KY", "ZIP": "42101", "COUNTRY": "UNITED STATES", "DAY PHONE": "903-238-6189", "DESCRIPTION '1": "RETAIL MALT BEVERAGE", "CUISINE": "LIQUOR", "OWNERSHIP": "PRIVATE", "TYPE": "BRICK\/MORTAR", "result_num": "0", "score": "100", "address_match": "1603 Us 31w Byp, Bowling Green, Kentucky, 42101", "Loc_name": "World", "Addr_type": "PointAddress", "User_fld": "", "latlong": "36.98001799498685,-86.4489230264206" }, "geometry": { "type": "Point", "coordinates": [ -86.448923026420601, 36.980017994986852 ] } },
{ "type": "Feature", "properties": { "NAME": "ZEST", "ABC START FOR LICENSE YEAR": null, "START DATE DATE": "07\/16\/2018", "ADDRESS": "326 MAIN STREET E", "CITY": "BOWLING GREEN", "ST": "KY", "ZIP": "42101", "COUNTRY": "UNITED STATES", "DAY PHONE": "270-791-8235", "DESCRIPTION '1": "JUICE SALES", "CUISINE": "JUICE SHOP", "OWNERSHIP": "PRIVATE", "TYPE": "BRICK\/MORTAR", "result_num": "0", "score": "98.21", "address_match": "326 E Main Ave, Bowling Green, Kentucky, 42101", "Loc_name": "World", "Addr_type": "StreetAddress", "User_fld": "", "latlong": "36.994657721394994,-86.44227317577636" }, "geometry": { "type": "Point", "coordinates": [ -86.442273175776364, 36.994657721394994 ] } },
{ "type": "Feature", "properties": { "NAME": "ZOGAM KHAI", "ABC START FOR LICENSE YEAR": "2018", "START DATE DATE": "06\/01\/2018", "ADDRESS": "111 OLD MORGANTOWN ROAD #200", "CITY": "BOWLING GREEN", "ST": "KY", "ZIP": "42101", "COUNTRY": "UNITED STATES", "DAY PHONE": "270-904-1351", "DESCRIPTION '1": "RESTAURANT", "CUISINE": "BURMESE AND PAN ASIAN", "OWNERSHIP": "PRIVATE", "TYPE": "BRICK\/MORTAR", "result_num": "0", "score": "100", "address_match": "111 Old Morgantown Rd, Bowling Green, Kentucky, 42101", "Loc_name": "World", "Addr_type": "StreetAddress", "User_fld": "", "latlong": "36.9888929160648,-86.45691928602906" }, "geometry": { "type": "Point", "coordinates": [ -86.456919286029063, 36.988892916064799 ] } },
{ "type": "Feature", "properties": { "NAME": "JUICY SEAFOOD ", "ABC START FOR LICENSE YEAR": null, "START DATE DATE": "00\/00\/2020", "ADDRESS": "801 CAMPBELL LANE, SUITE B", "CITY": "BOWLING GREEN", "ST": "KY", "ZIP": "42101", "COUNTRY": "UNITED STATES", "DAY PHONE": "270-904-4035", "DESCRIPTION '1": "RESTAURANT", "CUISINE": "SEAFOOD", "OWNERSHIP": "PRIVATE", "TYPE": "BRICK\/MORTAR", "result_num": "0", "score": "100", "address_match": "801 Campbell Ln, Ste B, Bowling Green, Kentucky, 42104", "Loc_name": "World", "Addr_type": "Subaddress", "User_fld": "", "latlong": "36.960953984857056,-86.46266297738192" }, "geometry": { "type": "Point", "coordinates": [ -86.462662977381925, 36.960953984857056 ] } },
{ "type": "Feature", "properties": { "NAME": "BURGER & BOWL", "ABC START FOR LICENSE YEAR": null, "START DATE DATE": "00\/00\/2020", "ADDRESS": "1131 FAIRVIEW AVENUE", "CITY": "BOWLING GREEN", "ST": "KY", "ZIP": "42103", "COUNTRY": "UNITED STATES", "DAY PHONE": "270-282-7732", "DESCRIPTION '1": "RESTAURANT ", "CUISINE": "AMERICAN", "OWNERSHIP": "PRIVATE", "TYPE": "BRICK\/MORTAR", "result_num": "0", "score": "100", "address_match": "1131 Fairview Ave, Bowling Green, Kentucky, 42103", "Loc_name": "World", "Addr_type": "PointAddress", "User_fld": "", "latlong": "36.990320988460596,-86.42336702273384" }, "geometry": { "type": "Point", "coordinates": [ -86.423367022733842, 36.990320988460596 ] } },
{ "type": "Feature", "properties": { "NAME": "RICH POND MARKET & DELI", "ABC START FOR LICENSE YEAR": null, "START DATE DATE": "00\/00\/0000", "ADDRESS": "8233 NASHVILLE ROAD", "CITY": "BOWLING GREEN", "ST": "KY", "ZIP": "42101", "COUNTRY": "UNITED STATES", "DAY PHONE": "270-782-8849", "DESCRIPTION '1": "RESTAURANT", "CUISINE": "AMERICAN", "OWNERSHIP": "PRIVATE", "TYPE": "BRICK\/MORTAR", "result_num": "0", "score": "100", "address_match": "8233 Nashville Rd, Bowling Green, Kentucky, 42101", "Loc_name": "World", "Addr_type": "PointAddress", "User_fld": "", "latlong": "36.89730101586194,-86.51972697420032" }, "geometry": { "type": "Point", "coordinates": [ -86.519726974200324, 36.897301015861942 ] } },
{ "type": "Feature", "properties": { "NAME": "GERARD'S 1907 TAVERN", "ABC START FOR LICENSE YEAR": null, "START DATE DATE": "00\/00\/0000", "ADDRESS": "935 COLLEGE ST", "CITY": "BOWLING GREEN", "ST": "KY", "ZIP": "42101", "COUNTRY": "UNITED STATES", "DAY PHONE": "270-904-8133", "DESCRIPTION '1": "RESTAURANT", "CUISINE": "AMERICAN", "OWNERSHIP": "PRIVATE", "TYPE": "BRICK\/MORTAR", "result_num": "0", "score": "100", "address_match": "935 College St, Bowling Green, Kentucky, 42101", "Loc_name": "World", "Addr_type": "PointAddress", "User_fld": "", "latlong": "36.99342099344051,-86.4427260339459" }, "geometry": { "type": "Point", "coordinates": [ -86.442726033945902, 36.993420993440509 ] } },
{ "type": "Feature", "properties": { "NAME": "LITTLE FOX BAKERY", "ABC START FOR LICENSE YEAR": null, "START DATE DATE": "00\/00\/0000", "ADDRESS": "401 PARK ROW", "CITY": "BOWLING GREEN", "ST": "KY", "ZIP": "42101", "COUNTRY": "UNITED STATES", "DAY PHONE": "270-904-4647", "DESCRIPTION '1": "BAKERY", "CUISINE": "BAKERY", "OWNERSHIP": "PRIVATE", "TYPE": "BRICK\/MORTAR", "result_num": "0", "score": "100", "address_match": "401 Park Row, Bowling Green, Kentucky, 42101", "Loc_name": "World", "Addr_type": "PointAddress", "User_fld": "", "latlong": "36.99308999208412,-86.44252201842262" }, "geometry": { "type": "Point", "coordinates": [ -86.442522018422622, 36.993089992084123 ] } },
{ "type": "Feature", "properties": { "NAME": "RILEY'S BAKERY", "ABC START FOR LICENSE YEAR": null, "START DATE DATE": "00\/00\/0000", "ADDRESS": "819 US 31W BYPASS", "CITY": "BOWLING GREEN", "ST": "KY", "ZIP": "42101", "COUNTRY": "UNITED STATES", "DAY PHONE": "270-842-7636", "DESCRIPTION '1": "BAKERY", "CUISINE": "BAKERY", "OWNERSHIP": "PRIVATE", "TYPE": "BRICK\/MORTAR", "result_num": "0", "score": "100", "address_match": "819 Us 31w Byp, Bowling Green, Kentucky, 42101", "Loc_name": "World", "Addr_type": "PointAddress", "User_fld": "", "latlong": "36.985801005263724,-86.43208202274147" }, "geometry": { "type": "Point", "coordinates": [ -86.432082022741469, 36.985801005263724 ] } }
]
}
